{
  "wifi": [
    {
      "Administration": "立法院",
      "Region": "臺北市",
      "HotspotName": "立法院大門會客室",
      "Address": "100臺北市中正區中山南路1號",
      "Latitude": "25.043965",
      "Longitude": "121.519581"
    },
    {
      "Administration": "立法院",
      "Region": "臺北市",
      "HotspotName": "立法院議場",
      "Address": "100臺北市中正區中山南路1號",
      "Latitude": "25.043717",
      "Longitude": "121.520635"
    },
    {
      "Administration": "教育部",
      "Region": "臺北市",
      "HotspotName": "國家圖書館2樓參考室",
      "Address": "100臺北市中正區中山南路20號",
      "Latitude": "25.03717",
      "Longitude": "121.516567"
    },
    {
      "Administration": "教育部",
      "Region": "臺北市",
      "HotspotName": "國家圖書館5樓閱覽室",
      "Address": "100臺北市中正區中山南路20號",
      "Latitude": "25.03717",
      "Longitude": "121.516567"
    },
    {
      "Administration": "教育部",
      "Region": "臺北市",
      "HotspotName": "國家圖書館6樓閱覽室",
      "Address": "100臺北市中正區中山南路20號",
      "Latitude": "25.03717",
      "Longitude": "121.516567"
    },
    {
      "Administration": "教育部",
      "Region": "臺北市",
      "HotspotName": "國家圖書館B1樓閱覽室",
      "Address": "100臺北市中正區中山南路20號",
      "Latitude": "25.03717",
      "Longitude": "121.516567"
    },
    {
      "Administration": "教育部",
      "Region": "臺北市",
      "HotspotName": "國家圖書館閱覽室",
      "Address": "100臺北市中正區中山南路20號",
      "Latitude": "25.03717",
      "Longitude": "121.516567"
    },
    {
      "Administration": "教育部",
      "Region": "臺北市",
      "HotspotName": "國立中正文化中心國家戲劇院福華劇院軒入口處",
      "Address": "100臺北市中正區中山南路21-1號",
      "Latitude": "25.036675",
      "Longitude": "121.519046"
    },
    {
      "Administration": "教育部",
      "Region": "臺北市",
      "HotspotName": "國立中正文化中心國家音樂廳售票口左側",
      "Address": "100臺北市中正區中山南路21-1號",
      "Latitude": "25.036675",
      "Longitude": "121.519046"
    },
    {
      "Administration": "文化部",
      "Region": "臺北市",
      "HotspotName": "國立中正紀念堂管理處堂內大忠門及大孝門服務台",
      "Address": "100臺北市中正區中山南路21號",
      "Latitude": "25.0347299",
      "Longitude": "121.521932"
    },
    {
      "Administration": "教育部",
      "Region": "臺北市",
      "HotspotName": "教育部一樓大廳",
      "Address": "100臺北市中正區中山南路5號",
      "Latitude": "25.042749",
      "Longitude": "121.51915"
    },
    {
      "Administration": "教育部",
      "Region": "臺北市",
      "HotspotName": "教育部前門廣場",
      "Address": "100臺北市中正區中山南路5號",
      "Latitude": "25.042749",
      "Longitude": "121.51915"
    },
    {
      "Administration": "教育部",
      "Region": "臺北市",
      "HotspotName": "國立臺灣大學附設醫院東址院區1樓大廳",
      "Address": "100臺北市中正區中山南路7號",
      "Latitude": "25.041049",
      "Longitude": "121.518552"
    },
    {
      "Administration": "經濟部",
      "Region": "臺北市",
      "HotspotName": "經濟部礦務局5樓公開閱覽室",
      "Address": "100臺北市中正區中華路1段53號5樓",
      "Latitude": "25.043418",
      "Longitude": "121.508875"
    },
    {
      "Administration": "行政院環境保護署",
      "Region": "臺北市",
      "HotspotName": "行政院環境保護署會客室",
      "Address": "100臺北市中正區中華路一段83號1樓",
      "Latitude": "25.038559",
      "Longitude": "121.507672"
    },
    {
      "Administration": "行政院環境保護署",
      "Region": "臺北市",
      "HotspotName": "行政院環境保護署記者室",
      "Address": "100臺北市中正區中華路一段83號3樓",
      "Latitude": "25.038559",
      "Longitude": "121.507672"
    },
    {
      "Administration": "行政院環境保護署",
      "Region": "臺北市",
      "HotspotName": "行政院環境保護署會議室",
      "Address": "100臺北市中正區中華路一段83號4樓",
      "Latitude": "25.038559",
      "Longitude": "121.507672"
    },
    {
      "Administration": "財政部",
      "Region": "臺北市",
      "HotspotName": "華南商業銀行中華路分行",
      "Address": "100臺北市中正區中華路二段59號",
      "Latitude": "25.034672",
      "Longitude": "121.506085"
    },
    {
      "Administration": "交通部",
      "Region": "臺北市",
      "HotspotName": "交通通訊傳播大樓10樓",
      "Address": "100臺北市中正區仁愛路1段50號10樓",
      "Latitude": "25.038201",
      "Longitude": "121.524791"
    },
    {
      "Administration": "交通部",
      "Region": "臺北市",
      "HotspotName": "交通通訊傳播大樓11樓",
      "Address": "100臺北市中正區仁愛路1段50號11樓",
      "Latitude": "25.038201",
      "Longitude": "121.524791"
    },
    {
      "Administration": "交通部",
      "Region": "臺北市",
      "HotspotName": "交通通訊傳播大樓12樓",
      "Address": "100臺北市中正區仁愛路1段50號12樓",
      "Latitude": "25.038201",
      "Longitude": "121.524791"
    },
    {
      "Administration": "交通部",
      "Region": "臺北市",
      "HotspotName": "交通通訊傳播大樓13樓",
      "Address": "100臺北市中正區仁愛路1段50號13樓",
      "Latitude": "25.038201",
      "Longitude": "121.524791"
    },
    {
      "Administration": "交通部",
      "Region": "臺北市",
      "HotspotName": "交通通訊傳播大樓14樓",
      "Address": "100臺北市中正區仁愛路1段50號14樓",
      "Latitude": "25.038201",
      "Longitude": "121.524791"
    },
    {
      "Administration": "交通部",
      "Region": "臺北市",
      "HotspotName": "交通通訊傳播大樓15樓",
      "Address": "100臺北市中正區仁愛路1段50號15樓",
      "Latitude": "25.038201",
      "Longitude": "121.524791"
    },
    {
      "Administration": "交通部",
      "Region": "臺北市",
      "HotspotName": "交通通訊傳播大樓16樓",
      "Address": "100臺北市中正區仁愛路1段50號16樓",
      "Latitude": "25.038201",
      "Longitude": "121.524791"
    },
    {
      "Administration": "交通部",
      "Region": "臺北市",
      "HotspotName": "交通通訊傳播大樓17樓",
      "Address": "100臺北市中正區仁愛路1段50號17樓",
      "Latitude": "25.038201",
      "Longitude": "121.524791"
    },
    {
      "Administration": "交通部",
      "Region": "臺北市",
      "HotspotName": "交通通訊傳播大樓18樓",
      "Address": "100臺北市中正區仁愛路1段50號18樓",
      "Latitude": "25.038201",
      "Longitude": "121.524791"
    },
    {
      "Administration": "交通部",
      "Region": "臺北市",
      "HotspotName": "交通通訊傳播大樓19樓",
      "Address": "100臺北市中正區仁愛路1段50號19樓",
      "Latitude": "25.038201",
      "Longitude": "121.524791"
    },
    {
      "Administration": "國家通訊傳播委員會",
      "Region": "臺北市",
      "HotspotName": "交通通訊傳播大樓1樓大廳",
      "Address": "100臺北市中正區仁愛路1段50號1樓",
      "Latitude": "25.038181",
      "Longitude": "121.524786"
    },
    {
      "Administration": "交通部",
      "Region": "臺北市",
      "HotspotName": "交通通訊傳播大樓20樓",
      "Address": "100臺北市中正區仁愛路1段50號20樓",
      "Latitude": "25.038201",
      "Longitude": "121.524791"
    },
    {
      "Administration": "交通部",
      "Region": "臺北市",
      "HotspotName": "交通通訊傳播大樓21樓",
      "Address": "100臺北市中正區仁愛路1段50號21樓",
      "Latitude": "25.038201",
      "Longitude": "121.524791"
    },
    {
      "Administration": "交通部",
      "Region": "臺北市",
      "HotspotName": "交通通訊傳播大樓2樓",
      "Address": "100臺北市中正區仁愛路1段50號2樓",
      "Latitude": "25.038201",
      "Longitude": "121.524791"
    },
    {
      "Administration": "交通部",
      "Region": "臺北市",
      "HotspotName": "交通通訊傳播大樓3樓",
      "Address": "100臺北市中正區仁愛路1段50號3樓",
      "Latitude": "25.038201",
      "Longitude": "121.524791"
    },
    {
      "Administration": "國家通訊傳播委員會",
      "Region": "臺北市",
      "HotspotName": "交通通訊傳播大樓7樓",
      "Address": "100臺北市中正區仁愛路1段50號7樓",
      "Latitude": "25.038113",
      "Longitude": "121.524684"
    },
    {
      "Administration": "國家通訊傳播委員會",
      "Region": "臺北市",
      "HotspotName": "交通通訊傳播大樓8樓",
      "Address": "100臺北市中正區仁愛路1段50號8樓",
      "Latitude": "25.038113",
      "Longitude": "121.524684"
    },
    {
      "Administration": "國家通訊傳播委員會",
      "Region": "臺北市",
      "HotspotName": "交通通訊傳播大樓9樓",
      "Address": "100臺北市中正區仁愛路1段50號9樓",
      "Latitude": "25.038113",
      "Longitude": "121.524684"
    },
    {
      "Administration": "交通部",
      "Region": "臺北市",
      "HotspotName": "交通通訊傳播大樓地下2樓",
      "Address": "100臺北市中正區仁愛路1段50號地下2樓",
      "Latitude": "25.038201",
      "Longitude": "121.524791"
    },
    {
      "Administration": "交通部",
      "Region": "臺北市",
      "HotspotName": "交通通信傳播大樓1樓服務台",
      "Address": "100臺北市中正區仁愛路一段50號",
      "Latitude": "25.038181",
      "Longitude": "121.524786"
    },
    {
      "Administration": "金融監督管理委員會",
      "Region": "臺北市",
      "HotspotName": "上海商銀仁愛分行",
      "Address": "100臺北市中正區仁愛路二段16號",
      "Latitude": "25.038053",
      "Longitude": "121.526237"
    },
    {
      "Administration": "財政部",
      "Region": "臺北市",
      "HotspotName": "臺灣銀行仁愛分行",
      "Address": "100臺北市中正區仁愛路二段99號",
      "Latitude": "25.038424",
      "Longitude": "121.532332"
    },
    {
      "Administration": "法務部",
      "Region": "臺北市",
      "HotspotName": "最高法院檢察署特別偵查組",
      "Address": "100臺北市中正區信義路一段3號4樓",
      "Latitude": "25.037167",
      "Longitude": "121.521334"
    },
    {
      "Administration": "財政部",
      "Region": "臺北市",
      "HotspotName": "彰化商業銀行東門分行",
      "Address": "100臺北市中正區信義路二段139號1樓",
      "Latitude": "25.034155",
      "Longitude": "121.529225"
    },
    {
      "Administration": "交通部",
      "Region": "臺北市",
      "HotspotName": "台北東門郵局",
      "Address": "100臺北市中正區信義路二段163號",
      "Latitude": "25.03407",
      "Longitude": "121.528913"
    },
    {
      "Administration": "財政部",
      "Region": "臺北市",
      "HotspotName": "華南商業銀行信義分行",
      "Address": "100臺北市中正區信義路二段183號",
      "Latitude": "25.033953",
      "Longitude": "121.529453"
    },
    {
      "Administration": "交通部",
      "Region": "臺北市",
      "HotspotName": "台北南陽郵局",
      "Address": "100臺北市中正區信陽街8號",
      "Latitude": "25.044665",
      "Longitude": "121.515998"
    },
    {
      "Administration": "文化部",
      "Region": "臺北市",
      "HotspotName": "華山文化創意園區服務中心",
      "Address": "100臺北市中正區八德路一段1號(中1館)",
      "Latitude": "25.044152",
      "Longitude": "121.529415"
    },
    {
      "Administration": "衛生福利部",
      "Region": "臺北市",
      "HotspotName": "中央健康保險署-臺北(公園路)聯合門診中心1樓",
      "Address": "100臺北市中正區公園路15-1號1樓",
      "Latitude": "25.044786",
      "Longitude": "121.517406"
    },
    {
      "Administration": "衛生福利部",
      "Region": "臺北市",
      "HotspotName": "中央健康保險署-臺北業務組公保大樓5樓聯合服務中心",
      "Address": "100臺北市中正區公園路15-1號1樓",
      "Latitude": "25.044786",
      "Longitude": "121.517406"
    },
    {
      "Administration": "交通部",
      "Region": "臺北市",
      "HotspotName": "交通部中央氣象局1樓大廳",
      "Address": "100臺北市中正區公園路64號",
      "Latitude": "25.037472",
      "Longitude": "121.514873"
    },
    {
      "Administration": "交通部",
      "Region": "臺北市",
      "HotspotName": "交通部中央氣象局4樓公關室",
      "Address": "100臺北市中正區公園路64號409室",
      "Latitude": "25.037511",
      "Longitude": "121.514229"
    },
    {
      "Administration": "財政部",
      "Region": "臺北市",
      "HotspotName": "兆豐國際商銀外交部簡易分行",
      "Address": "100臺北市中正區凱達格蘭大道2號",
      "Latitude": "25.038998",
      "Longitude": "121.516342"
    },
    {
      "Administration": "外交部",
      "Region": "臺北市",
      "HotspotName": "外交部1樓會客室",
      "Address": "100臺北市中正區凱達格蘭大道2號1樓",
      "Latitude": "25.038947",
      "Longitude": "121.516346"
    },
    {
      "Administration": "行政院",
      "Region": "臺北市",
      "HotspotName": "行政院院本部會客室",
      "Address": "100臺北市中正區北平東路2號",
      "Latitude": "25.046938",
      "Longitude": "121.520733"
    },
    {
      "Administration": "文化部",
      "Region": "臺北市",
      "HotspotName": "文化部1樓",
      "Address": "100臺北市中正區北平東路30-1號",
      "Latitude": "25.045507",
      "Longitude": "121.526646"
    },
    {
      "Administration": "交通部",
      "Region": "臺北市",
      "HotspotName": "臺灣港務股份有限公司臺北聯絡處",
      "Address": "100臺北市中正區北平東路3號3樓3021室",
      "Latitude": "25.04692",
      "Longitude": "121.521921"
    },
    {
      "Administration": "交通部",
      "Region": "臺北市",
      "HotspotName": "台北火車站郵局",
      "Address": "100臺北市中正區北平西路3號",
      "Latitude": "25.048203",
      "Longitude": "121.515698"
    },
    {
      "Administration": "交通部",
      "Region": "臺北市",
      "HotspotName": "臺鐵局臺北站R13票房",
      "Address": "100臺北市中正區北平西路3號",
      "Latitude": "25.048203",
      "Longitude": "121.515698"
    },
    {
      "Administration": "交通部",
      "Region": "臺北市",
      "HotspotName": "臺鐵局臺北站地下一樓東南角",
      "Address": "100臺北市中正區北平西路3號",
      "Latitude": "25.048203",
      "Longitude": "121.515698"
    },
    {
      "Administration": "交通部",
      "Region": "臺北市",
      "HotspotName": "臺鐵局臺北站地下三樓剪收票口(R13)",
      "Address": "100臺北市中正區北平西路3號",
      "Latitude": "25.048203",
      "Longitude": "121.515698"
    },
    {
      "Administration": "交通部",
      "Region": "臺北市",
      "HotspotName": "臺鐵局臺北站大廳東側",
      "Address": "100臺北市中正區北平西路3號",
      "Latitude": "25.048203",
      "Longitude": "121.515698"
    },
    {
      "Administration": "交通部",
      "Region": "臺北市",
      "HotspotName": "臺鐵局臺北站大廳西側",
      "Address": "100臺北市中正區北平西路3號",
      "Latitude": "25.048203",
      "Longitude": "121.515698"
    },
    {
      "Administration": "交通部",
      "Region": "臺北市",
      "HotspotName": "臺鐵局臺北站東剪票入口(地下1樓)",
      "Address": "100臺北市中正區北平西路3號",
      "Latitude": "25.048203",
      "Longitude": "121.515698"
    },
    {
      "Administration": "交通部",
      "Region": "臺北市",
      "HotspotName": "臺鐵局臺北站西剪票入口(地下1樓)",
      "Address": "100臺北市中正區北平西路3號",
      "Latitude": "25.048203",
      "Longitude": "121.515698"
    },
    {
      "Administration": "交通部",
      "Region": "臺北市",
      "HotspotName": "交通部臺灣鐵路管理局第9會議室",
      "Address": "100臺北市中正區北平西路3號3樓",
      "Latitude": "25.0468873",
      "Longitude": "121.5173708"
    },
    {
      "Administration": "交通部",
      "Region": "臺北市",
      "HotspotName": "臺鐵局行政處檔案閱覽室",
      "Address": "100臺北市中正區北平西路3號4樓4101室",
      "Latitude": "25.048203",
      "Longitude": "121.515698"
    },
    {
      "Administration": "交通部",
      "Region": "臺北市",
      "HotspotName": "交通部臺灣鐵路管理局演藝廳-1",
      "Address": "100臺北市中正區北平西路3號5樓",
      "Latitude": "25.0468873",
      "Longitude": "121.5173708"
    },
    {
      "Administration": "交通部",
      "Region": "臺北市",
      "HotspotName": "交通部臺灣鐵路管理局演藝廳-2",
      "Address": "100臺北市中正區北平西路3號5樓",
      "Latitude": "25.0468873",
      "Longitude": "121.5173708"
    },
    {
      "Administration": "交通部",
      "Region": "臺北市",
      "HotspotName": "交通部臺灣鐵路管理局演藝廳-3",
      "Address": "100臺北市中正區北平西路3號5樓",
      "Latitude": "25.0468873",
      "Longitude": "121.5173708"
    },
    {
      "Administration": "交通部",
      "Region": "臺北市",
      "HotspotName": "交通部臺灣鐵路管理局第1會議室-1",
      "Address": "100臺北市中正區北平西路3號5樓",
      "Latitude": "25.0468873",
      "Longitude": "121.5173708"
    },
    {
      "Administration": "交通部",
      "Region": "臺北市",
      "HotspotName": "交通部臺灣鐵路管理局第1會議室-2",
      "Address": "100臺北市中正區北平西路3號5樓",
      "Latitude": "25.0468873",
      "Longitude": "121.5173708"
    },
    {
      "Administration": "交通部",
      "Region": "臺北市",
      "HotspotName": "交通部臺灣鐵路管理局第2會議室",
      "Address": "100臺北市中正區北平西路3號5樓",
      "Latitude": "25.0468873",
      "Longitude": "121.5173708"
    },
    {
      "Administration": "交通部",
      "Region": "臺北市",
      "HotspotName": "交通部臺灣鐵路管理局第3會議室",
      "Address": "100臺北市中正區北平西路3號5樓",
      "Latitude": "25.0468873",
      "Longitude": "121.5173708"
    },
    {
      "Administration": "交通部",
      "Region": "臺北市",
      "HotspotName": "臺鐵局秘書室新聞聯絡室",
      "Address": "100臺北市中正區北平西路3號5樓5007室",
      "Latitude": "25.048203",
      "Longitude": "121.515698"
    },
    {
      "Administration": "交通部",
      "Region": "臺北市",
      "HotspotName": "臺鐵局材料處公開閱覽室",
      "Address": "100臺北市中正區北平西路3號5樓5075室",
      "Latitude": "25.048203",
      "Longitude": "121.515698"
    },
    {
      "Administration": "交通部",
      "Region": "臺北市",
      "HotspotName": "交通部臺灣鐵路管理局第4會議室",
      "Address": "100臺北市中正區北平西路3號6樓",
      "Latitude": "25.0468873",
      "Longitude": "121.5173708"
    },
    {
      "Administration": "交通部",
      "Region": "臺北市",
      "HotspotName": "交通部臺灣鐵路管理局第5會議室",
      "Address": "100臺北市中正區北平西路3號6樓",
      "Latitude": "25.0468873",
      "Longitude": "121.5173708"
    },
    {
      "Administration": "交通部",
      "Region": "臺北市",
      "HotspotName": "臺鐵局秘書室國會聯絡室",
      "Address": "100臺北市中正區北平西路3號6樓6002室",
      "Latitude": "25.048203",
      "Longitude": "121.515698"
    },
    {
      "Administration": "文化部",
      "Region": "臺北市",
      "HotspotName": "國立臺灣博物館南門園區小白宮展演廳",
      "Address": "100臺北市中正區南昌路1段1號",
      "Latitude": "25.034186",
      "Longitude": "121.516118"
    },
    {
      "Administration": "文化部",
      "Region": "臺北市",
      "HotspotName": "國立臺灣博物館南門園區紅樓1樓",
      "Address": "100臺北市中正區南昌路1段1號",
      "Latitude": "25.034186",
      "Longitude": "121.516118"
    },
    {
      "Administration": "文化部",
      "Region": "臺北市",
      "HotspotName": "國立臺灣博物館南門園區紅樓2樓",
      "Address": "100臺北市中正區南昌路1段1號",
      "Latitude": "25.034186",
      "Longitude": "121.516118"
    },
    {
      "Administration": "文化部",
      "Region": "臺北市",
      "HotspotName": "國立臺灣博物館南門園區行政大樓",
      "Address": "100臺北市中正區南昌路1段1號",
      "Latitude": "25.034186",
      "Longitude": "121.516118"
    },
    {
      "Administration": "交通部",
      "Region": "臺北市",
      "HotspotName": "台北古亭郵局",
      "Address": "100臺北市中正區南昌路二段232號",
      "Latitude": "25.023685",
      "Longitude": "121.524667"
    },
    {
      "Administration": "財政部",
      "Region": "臺北市",
      "HotspotName": "第一商業銀行(南門分行)",
      "Address": "100臺北市中正區南昌路１段94號",
      "Latitude": "25.030508",
      "Longitude": "121.517691"
    },
    {
      "Administration": "行政院農業委員會",
      "Region": "臺北市",
      "HotspotName": "行政院農業委員會1樓記者室",
      "Address": "100臺北市中正區南海路37號",
      "Latitude": "25.03222",
      "Longitude": "121.513156"
    },
    {
      "Administration": "行政院農業委員會",
      "Region": "臺北市",
      "HotspotName": "行政院農業委員會2樓",
      "Address": "100臺北市中正區南海路37號",
      "Latitude": "25.03222",
      "Longitude": "121.513156"
    },
    {
      "Administration": "行政院農業委員會",
      "Region": "臺北市",
      "HotspotName": "行政院農業委員會10樓",
      "Address": "100臺北市中正區南海路37號10樓",
      "Latitude": "25.03222",
      "Longitude": "121.513156"
    },
    {
      "Administration": "行政院農業委員會",
      "Region": "臺北市",
      "HotspotName": "行政院農業委員會10樓辦公區",
      "Address": "100臺北市中正區南海路37號10樓",
      "Latitude": "25.03222",
      "Longitude": "121.513156"
    },
    {
      "Administration": "行政院農業委員會",
      "Region": "臺北市",
      "HotspotName": "行政院農業委員會1樓大廳",
      "Address": "100臺北市中正區南海路37號1樓",
      "Latitude": "25.031717",
      "Longitude": "121.513317"
    },
    {
      "Administration": "行政院農業委員會",
      "Region": "臺北市",
      "HotspotName": "行政院農業委員會2樓辦公區",
      "Address": "100臺北市中正區南海路37號2樓",
      "Latitude": "25.03222",
      "Longitude": "121.513156"
    },
    {
      "Administration": "行政院農業委員會",
      "Region": "臺北市",
      "HotspotName": "行政院農業委員會3樓",
      "Address": "100臺北市中正區南海路37號3樓",
      "Latitude": "25.03222",
      "Longitude": "121.513156"
    },
    {
      "Administration": "行政院農業委員會",
      "Region": "臺北市",
      "HotspotName": "行政院農業委員會3樓辦公區",
      "Address": "100臺北市中正區南海路37號3樓",
      "Latitude": "25.03222",
      "Longitude": "121.513156"
    },
    {
      "Administration": "行政院農業委員會",
      "Region": "臺北市",
      "HotspotName": "行政院農業委員會4樓",
      "Address": "100臺北市中正區南海路37號4樓",
      "Latitude": "25.03222",
      "Longitude": "121.513156"
    },
    {
      "Administration": "行政院農業委員會",
      "Region": "臺北市",
      "HotspotName": "行政院農業委員會4樓辦公區",
      "Address": "100臺北市中正區南海路37號4樓",
      "Latitude": "25.03222",
      "Longitude": "121.513156"
    },
    {
      "Administration": "行政院農業委員會",
      "Region": "臺北市",
      "HotspotName": "行政院農業委員會5F右側",
      "Address": "100臺北市中正區南海路37號5樓右側",
      "Latitude": "25.031717",
      "Longitude": "121.513317"
    },
    {
      "Administration": "行政院農業委員會",
      "Region": "臺北市",
      "HotspotName": "行政院農業委員會5F左側",
      "Address": "100臺北市中正區南海路37號5樓左側",
      "Latitude": "25.031717",
      "Longitude": "121.513317"
    },
    {
      "Administration": "行政院農業委員會",
      "Region": "臺北市",
      "HotspotName": "行政院農業委員會6樓",
      "Address": "100臺北市中正區南海路37號6樓",
      "Latitude": "25.03222",
      "Longitude": "121.513156"
    },
    {
      "Administration": "行政院農業委員會",
      "Region": "臺北市",
      "HotspotName": "行政院農業委員會7樓",
      "Address": "100臺北市中正區南海路37號7樓",
      "Latitude": "25.03222",
      "Longitude": "121.513156"
    },
    {
      "Administration": "行政院農業委員會",
      "Region": "臺北市",
      "HotspotName": "行政院農業委員會7樓辦公區",
      "Address": "100臺北市中正區南海路37號7樓",
      "Latitude": "25.03222",
      "Longitude": "121.513156"
    },
    {
      "Administration": "行政院農業委員會",
      "Region": "臺北市",
      "HotspotName": "行政院農業委員會8樓",
      "Address": "100臺北市中正區南海路37號8樓",
      "Latitude": "25.03222",
      "Longitude": "121.513156"
    },
    {
      "Administration": "行政院農業委員會",
      "Region": "臺北市",
      "HotspotName": "行政院農業委員會8樓辦公區",
      "Address": "100臺北市中正區南海路37號8樓",
      "Latitude": "25.03222",
      "Longitude": "121.513156"
    },
    {
      "Administration": "行政院農業委員會",
      "Region": "臺北市",
      "HotspotName": "行政院農業委員會9樓",
      "Address": "100臺北市中正區南海路37號9樓",
      "Latitude": "25.03222",
      "Longitude": "121.513156"
    },
    {
      "Administration": "行政院農業委員會",
      "Region": "臺北市",
      "HotspotName": "行政院農業委員會9樓辦公區",
      "Address": "100臺北市中正區南海路37號9樓",
      "Latitude": "25.03222",
      "Longitude": "121.513156"
    },
    {
      "Administration": "行政院農業委員會",
      "Region": "臺北市",
      "HotspotName": "行政院農業委員會地下1樓圖書室",
      "Address": "100臺北市中正區南海路37號地下1樓",
      "Latitude": "25.03222",
      "Longitude": "121.513156"
    },
    {
      "Administration": "財政部",
      "Region": "臺北市",
      "HotspotName": "中國輸出入銀行總行",
      "Address": "100臺北市中正區南海路3號8樓",
      "Latitude": "25.032835",
      "Longitude": "121.516836"
    },
    {
      "Administration": "教育部",
      "Region": "臺北市",
      "HotspotName": "國立教育廣播電臺服務中心",
      "Address": "100臺北市中正區南海路41號",
      "Latitude": "25.031779",
      "Longitude": "121.512333"
    },
    {
      "Administration": "教育部",
      "Region": "臺北市",
      "HotspotName": "國立臺灣藝術教育館南海書院第2會議室",
      "Address": "100臺北市中正區南海路43號",
      "Latitude": "25.0323",
      "Longitude": "121.5121"
    },
    {
      "Administration": "教育部",
      "Region": "臺北市",
      "HotspotName": "國立臺灣藝術教育館圖書室",
      "Address": "100臺北市中正區南海路43號",
      "Latitude": "25.031945",
      "Longitude": "121.51449"
    },
    {
      "Administration": "教育部",
      "Region": "臺北市",
      "HotspotName": "國立臺灣藝術教育館南海劇場",
      "Address": "100臺北市中正區南海路47號",
      "Latitude": "25.0316",
      "Longitude": "121.5117"
    },
    {
      "Administration": "交通部",
      "Region": "臺北市",
      "HotspotName": "台北史博館郵局",
      "Address": "100臺北市中正區南海路49號",
      "Latitude": "25.031454",
      "Longitude": "121.511227"
    },
    {
      "Administration": "文化部",
      "Region": "臺北市",
      "HotspotName": "國立歷史博物館戶外廣場",
      "Address": "100臺北市中正區南海路49號",
      "Latitude": "25.031454",
      "Longitude": "121.511227"
    },
    {
      "Administration": "行政院農業委員會",
      "Region": "臺北市",
      "HotspotName": "台北植物園布政使司文物館",
      "Address": "100臺北市中正區南海路53號",
      "Latitude": "25.031211",
      "Longitude": "121.510191"
    },
    {
      "Administration": "行政院農業委員會",
      "Region": "臺北市",
      "HotspotName": "林業試驗所行政大樓",
      "Address": "100臺北市中正區南海路53號",
      "Latitude": "25.031211",
      "Longitude": "121.510191"
    },
    {
      "Administration": "臺灣高等法院",
      "Region": "臺北市",
      "HotspotName": "臺灣高等法院刑事庭大廈",
      "Address": "100臺北市中正區博愛路127號",
      "Latitude": "25.03824",
      "Longitude": "121.5113"
    },
    {
      "Administration": "法務部",
      "Region": "臺北市",
      "HotspotName": "臺灣高等法院檢察署為民服務中心",
      "Address": "100臺北市中正區博愛路127號",
      "Latitude": "25.041953",
      "Longitude": "121.513059"
    },
    {
      "Administration": "臺灣高等法院",
      "Region": "臺北市",
      "HotspotName": "臺灣臺北地方法院2樓民眾休息區",
      "Address": "100臺北市中正區博愛路131號",
      "Latitude": "25.036986",
      "Longitude": "121.511106"
    },
    {
      "Administration": "法務部",
      "Region": "臺北市",
      "HotspotName": "臺灣臺北地方法院檢察署1F民眾等候區",
      "Address": "100臺北市中正區博愛路131號",
      "Latitude": "25.036729",
      "Longitude": "121.511059"
    },
    {
      "Administration": "交通部",
      "Region": "臺北市",
      "HotspotName": "國史館郵局",
      "Address": "100臺北市中正區博愛路168號之1",
      "Latitude": "25.039177",
      "Longitude": "121.51098"
    },
    {
      "Administration": "財政部",
      "Region": "臺北市",
      "HotspotName": "臺灣土地銀行臺北分行",
      "Address": "100臺北市中正區博愛路72號",
      "Latitude": "25.044783",
      "Longitude": "121.511316"
    },
    {
      "Administration": "財政部",
      "Region": "臺北市",
      "HotspotName": "華南商業銀行城內分行",
      "Address": "100臺北市中正區博愛路93號",
      "Latitude": "25.04309",
      "Longitude": "121.509647"
    },
    {
      "Administration": "行政院農業委員會",
      "Region": "臺北市",
      "HotspotName": "行政院農業委員會林務局農林航空測量所",
      "Address": "100臺北市中正區和平西路2段100號1樓",
      "Latitude": "25.029948",
      "Longitude": "121.509722"
    },
    {
      "Administration": "行政院農業委員會",
      "Region": "臺北市",
      "HotspotName": "漁業署和平大樓4樓會議室",
      "Address": "100臺北市中正區和平西路二段100號4樓",
      "Latitude": "25.030153",
      "Longitude": "121.509427"
    },
    {
      "Administration": "行政院農業委員會",
      "Region": "臺北市",
      "HotspotName": "漁業署和平大樓6樓圖書室",
      "Address": "100臺北市中正區和平西路二段100號6樓",
      "Latitude": "25.030153",
      "Longitude": "121.509427"
    },
    {
      "Administration": "行政院農業委員會",
      "Region": "臺北市",
      "HotspotName": "漁業署和平大樓7樓會議室",
      "Address": "100臺北市中正區和平西路二段100號7樓",
      "Latitude": "25.030153",
      "Longitude": "121.509427"
    },
    {
      "Administration": "行政院農業委員會",
      "Region": "臺北市",
      "HotspotName": "漁業署和平大樓8樓會議室",
      "Address": "100臺北市中正區和平西路二段100號8樓",
      "Latitude": "25.030153",
      "Longitude": "121.509427"
    },
    {
      "Administration": "交通部",
      "Region": "臺北市",
      "HotspotName": "台北龍口郵局",
      "Address": "100臺北市中正區和平西路二段68號",
      "Latitude": "25.029124",
      "Longitude": "121.511537"
    },
    {
      "Administration": "行政院",
      "Region": "臺北市",
      "HotspotName": "行政院發言人辦公室接待中心",
      "Address": "100臺北市中正區天津街2號",
      "Latitude": "25.046469",
      "Longitude": "121.5218"
    },
    {
      "Administration": "經濟部",
      "Region": "臺北市",
      "HotspotName": "經濟部國營事業委員會1樓大廳",
      "Address": "100臺北市中正區寶慶路25號",
      "Latitude": "25.041418",
      "Longitude": "121.510962"
    },
    {
      "Administration": "經濟部",
      "Region": "臺北市",
      "HotspotName": "經濟部國營事業委員會4樓",
      "Address": "100臺北市中正區寶慶路25號4F",
      "Latitude": "25.041438",
      "Longitude": "121.511064"
    },
    {
      "Administration": "經濟部",
      "Region": "臺北市",
      "HotspotName": "經濟部國營事業委員會5樓",
      "Address": "100臺北市中正區寶慶路25號5F",
      "Latitude": "25.041438",
      "Longitude": "121.511064"
    },
    {
      "Administration": "經濟部",
      "Region": "臺北市",
      "HotspotName": "經濟部國營事業委員會6樓",
      "Address": "100臺北市中正區寶慶路25號6F",
      "Latitude": "25.041438",
      "Longitude": "121.511064"
    },
    {
      "Administration": "經濟部",
      "Region": "臺北市",
      "HotspotName": "經濟部國營事業委員會7樓",
      "Address": "100臺北市中正區寶慶路25號7F",
      "Latitude": "25.041438",
      "Longitude": "121.511064"
    },
    {
      "Administration": "國家發展委員會",
      "Region": "臺北市",
      "HotspotName": "國家發展委員會寶慶辦公區",
      "Address": "100臺北市中正區寶慶路3號",
      "Latitude": "25.041179",
      "Longitude": "121.513385"
    },
    {
      "Administration": "交通部",
      "Region": "臺北市",
      "HotspotName": "台北螢橋郵局",
      "Address": "100臺北市中正區廈門街76號",
      "Latitude": "25.0246",
      "Longitude": "121.517365"
    },
    {
      "Administration": "內政部",
      "Region": "臺北市",
      "HotspotName": "內政部移民署臺北市服務站",
      "Address": "100臺北市中正區廣州街15號1樓及地下1樓",
      "Latitude": "25.035965",
      "Longitude": "121.508918"
    },
    {
      "Administration": "內政部",
      "Region": "臺北市",
      "HotspotName": "內政部警政署警察廣播電臺服務中心",
      "Address": "100臺北市中正區廣州街17號",
      "Latitude": "25.0358843",
      "Longitude": "121.5076351"
    },
    {
      "Administration": "交通部",
      "Region": "臺北市",
      "HotspotName": "台北南門郵局",
      "Address": "100臺北市中正區廣州街2號",
      "Latitude": "25.034924",
      "Longitude": "121.510324"
    },
    {
      "Administration": "行政院主計總處",
      "Region": "臺北市",
      "HotspotName": "行政院主計總處(廣博大樓)",
      "Address": "100臺北市中正區廣州街2號",
      "Latitude": "25.03501",
      "Longitude": "121.510342"
    },
    {
      "Administration": "國家通訊傳播委員會",
      "Region": "臺北市",
      "HotspotName": "國家通訊傳播委員會北區監理處服務中心",
      "Address": "100臺北市中正區延平南路143號2樓",
      "Latitude": "25.036358",
      "Longitude": "121.508097"
    },
    {
      "Administration": "教育部",
      "Region": "臺北市",
      "HotspotName": "國家圖書館藝術暨視聽資料中心",
      "Address": "100臺北市中正區延平南路156號",
      "Latitude": "25.038755",
      "Longitude": "121.508403"
    },
    {
      "Administration": "內政部",
      "Region": "臺北市",
      "HotspotName": "役政署北部辦公室",
      "Address": "100臺北市中正區延平南路45號1樓",
      "Latitude": "25.04502",
      "Longitude": "121.510472"
    },
    {
      "Administration": "內政部",
      "Region": "臺北市",
      "HotspotName": "內政部8樓會議室",
      "Address": "100臺北市中正區徐州路5號",
      "Latitude": "25.04239",
      "Longitude": "121.519473"
    },
    {
      "Administration": "教育部",
      "Region": "臺北市",
      "HotspotName": "教育部青年發展署",
      "Address": "100臺北市中正區徐州路5號14樓",
      "Latitude": "25.042004",
      "Longitude": "121.519421"
    },
    {
      "Administration": "中央選舉委員會",
      "Region": "臺北市",
      "HotspotName": "中央聯合辦公大樓南棟",
      "Address": "100臺北市中正區徐州路5號1樓",
      "Latitude": "25.04221",
      "Longitude": "121.51947"
    },
    {
      "Administration": "僑務委員會",
      "Region": "臺北市",
      "HotspotName": "僑務委員會中央聯合辦公大樓南棟",
      "Address": "100臺北市中正區徐州路5號3樓",
      "Latitude": "25.04221",
      "Longitude": "121.51947"
    },
    {
      "Administration": "內政部",
      "Region": "臺北市",
      "HotspotName": "內政部",
      "Address": "100臺北市中正區徐州路5號3樓",
      "Latitude": "25.0422099",
      "Longitude": "121.51947"
    },
    {
      "Administration": "交通部",
      "Region": "臺北市",
      "HotspotName": "台北中聯郵局",
      "Address": "100臺北市中正區徐州路5號地下一樓",
      "Latitude": "25.0410436",
      "Longitude": "121.5221584"
    },
    {
      "Administration": "行政院主計總處",
      "Region": "臺北市",
      "HotspotName": "行政院主計總處(院區)",
      "Address": "100臺北市中正區忠孝東路1段1號",
      "Latitude": "25.046147",
      "Longitude": "121.520933"
    },
    {
      "Administration": "行政院",
      "Region": "臺北市",
      "HotspotName": "行政院院史珍貴史料展示",
      "Address": "100臺北市中正區忠孝東路1段1號",
      "Latitude": "25.046667",
      "Longitude": "121.520891"
    },
    {
      "Administration": "內政部",
      "Region": "臺北市",
      "HotspotName": "內政部警政署",
      "Address": "100臺北市中正區忠孝東路一段7號",
      "Latitude": "25.045246",
      "Longitude": "121.522512"
    },
    {
      "Administration": "財政部",
      "Region": "臺北市",
      "HotspotName": "兆豐國際商銀金控總部分行",
      "Address": "100臺北市中正區忠孝東路二段123號",
      "Latitude": "25.042616",
      "Longitude": "121.532508"
    },
    {
      "Administration": "財政部",
      "Region": "臺北市",
      "HotspotName": "兆豐國際商業銀行企劃處10樓",
      "Address": "100臺北市中正區忠孝東路二段123號10樓",
      "Latitude": "25.042616",
      "Longitude": "121.532508"
    },
    {
      "Administration": "財政部",
      "Region": "臺北市",
      "HotspotName": "兆豐國際商業銀行債務管理處13樓",
      "Address": "100臺北市中正區忠孝東路二段123號13樓",
      "Latitude": "25.042616",
      "Longitude": "121.532508"
    },
    {
      "Administration": "財政部",
      "Region": "臺北市",
      "HotspotName": "兆豐國際商業銀行總務處4樓",
      "Address": "100臺北市中正區忠孝東路二段123號4樓",
      "Latitude": "25.042616",
      "Longitude": "121.532508"
    },
    {
      "Administration": "財政部",
      "Region": "臺北市",
      "HotspotName": "第一商業銀行(忠孝路分行)",
      "Address": "100臺北市中正區忠孝東路２段94號",
      "Latitude": "25.0428524",
      "Longitude": "121.5300941"
    },
    {
      "Administration": "交通部",
      "Region": "臺北市",
      "HotspotName": "台北北門郵局-1",
      "Address": "100臺北市中正區忠孝西路一段114號",
      "Latitude": "25.047296",
      "Longitude": "121.512154"
    },
    {
      "Administration": "交通部",
      "Region": "臺北市",
      "HotspotName": "台北北門郵局-2",
      "Address": "100臺北市中正區忠孝西路一段114號",
      "Latitude": "25.047296",
      "Longitude": "121.512154"
    },
    {
      "Administration": "交通部",
      "Region": "臺北市",
      "HotspotName": "台北北門郵局-3",
      "Address": "100臺北市中正區忠孝西路一段114號",
      "Latitude": "25.047296",
      "Longitude": "121.512154"
    },
    {
      "Administration": "交通部",
      "Region": "臺北市",
      "HotspotName": "台北北門郵局-4",
      "Address": "100臺北市中正區忠孝西路一段114號",
      "Latitude": "25.047296",
      "Longitude": "121.512154"
    },
    {
      "Administration": "交通部",
      "Region": "臺北市",
      "HotspotName": "台北北門郵局-5",
      "Address": "100臺北市中正區忠孝西路一段114號",
      "Latitude": "25.047296",
      "Longitude": "121.512154"
    },
    {
      "Administration": "交通部",
      "Region": "臺北市",
      "HotspotName": "台北復興橋郵局",
      "Address": "100臺北市中正區忠孝西路一段1號",
      "Latitude": "25.046021",
      "Longitude": "121.51941"
    },
    {
      "Administration": "財政部",
      "Region": "臺北市",
      "HotspotName": "財政部8樓大禮堂",
      "Address": "100臺北市中正區愛國西路2號",
      "Latitude": "25.034623",
      "Longitude": "121.515559"
    },
    {
      "Administration": "財政部",
      "Region": "臺北市",
      "HotspotName": "華南商業銀行新生分行",
      "Address": "100臺北市中正區新生南路一段48號",
      "Latitude": "25.042312",
      "Longitude": "121.532671"
    },
    {
      "Administration": "審計部",
      "Region": "臺北市",
      "HotspotName": "審計部5樓會議室",
      "Address": "100臺北市中正區杭州北路1號",
      "Latitude": "25.04516",
      "Longitude": "121.527273"
    },
    {
      "Administration": "行政院農業委員會",
      "Region": "臺北市",
      "HotspotName": "農業金融局2樓會議室",
      "Address": "100臺北市中正區杭州南路一段15號",
      "Latitude": "25.043615",
      "Longitude": "121.526724"
    },
    {
      "Administration": "行政院農業委員會",
      "Region": "臺北市",
      "HotspotName": "農業金融局3樓右側",
      "Address": "100臺北市中正區杭州南路一段15號",
      "Latitude": "25.043615",
      "Longitude": "121.526724"
    },
    {
      "Administration": "行政院農業委員會",
      "Region": "臺北市",
      "HotspotName": "農業金融局3樓會議室",
      "Address": "100臺北市中正區杭州南路一段15號",
      "Latitude": "25.043615",
      "Longitude": "121.526724"
    },
    {
      "Administration": "行政院農業委員會",
      "Region": "臺北市",
      "HotspotName": "行政院農業委員會農糧署",
      "Address": "100臺北市中正區杭州南路一段15號6樓",
      "Latitude": "25.043615",
      "Longitude": "121.526724"
    },
    {
      "Administration": "交通部",
      "Region": "臺北市",
      "HotspotName": "台北杭南郵局",
      "Address": "100臺北市中正區杭州南路一段23號之3",
      "Latitude": "25.042327",
      "Longitude": "121.526473"
    },
    {
      "Administration": "交通部",
      "Region": "臺北市",
      "HotspotName": "交通部國際會議中心1、2樓",
      "Address": "100臺北市中正區杭州南路一段24號",
      "Latitude": "25.037606",
      "Longitude": "121.52467"
    },
    {
      "Administration": "交通部",
      "Region": "臺北市",
      "HotspotName": "交通部國際會議中心3、4樓",
      "Address": "100臺北市中正區杭州南路一段24號",
      "Latitude": "25.037606",
      "Longitude": "121.52467"
    },
    {
      "Administration": "交通部",
      "Region": "臺北市",
      "HotspotName": "交通部國際會議中心5樓",
      "Address": "100臺北市中正區杭州南路一段24號",
      "Latitude": "25.037606",
      "Longitude": "121.52467"
    },
    {
      "Administration": "交通部",
      "Region": "臺北市",
      "HotspotName": "台北仁杭郵局",
      "Address": "100臺北市中正區杭州南路一段24號1樓",
      "Latitude": "25.0376058",
      "Longitude": "121.5246697"
    },
    {
      "Administration": "行政院農業委員會",
      "Region": "臺北市",
      "HotspotName": "林務局1樓記者室、2樓會議室、5樓會議室",
      "Address": "100臺北市中正區杭州南路一段2號",
      "Latitude": "25.043591",
      "Longitude": "121.526607"
    },
    {
      "Administration": "行政院農業委員會",
      "Region": "臺北市",
      "HotspotName": "林務局2樓大禮堂、7樓會議室",
      "Address": "100臺北市中正區杭州南路一段2號",
      "Latitude": "25.043591",
      "Longitude": "121.526607"
    },
    {
      "Administration": "行政院農業委員會",
      "Region": "臺北市",
      "HotspotName": "林務局8樓會議室",
      "Address": "100臺北市中正區杭州南路一段2號",
      "Latitude": "25.043591",
      "Longitude": "121.526607"
    },
    {
      "Administration": "衛生福利部",
      "Region": "臺北市",
      "HotspotName": "疾病管制署-疫遊館",
      "Address": "100臺北市中正區林森南路6號1樓",
      "Latitude": "25.043293",
      "Longitude": "121.522754"
    },
    {
      "Administration": "財政部",
      "Region": "臺北市",
      "HotspotName": "臺灣銀行採購部",
      "Address": "100臺北市中正區武昌街一段45號3樓",
      "Latitude": "25.044329",
      "Longitude": "121.511374"
    },
    {
      "Administration": "國防部",
      "Region": "臺北市",
      "HotspotName": "三軍總醫院汀州院區1樓門診大廳",
      "Address": "100臺北市中正區汀州路三段40號",
      "Latitude": "25.016687",
      "Longitude": "121.529796"
    },
    {
      "Administration": "交通部",
      "Region": "臺北市",
      "HotspotName": "台北汀洲郵局",
      "Address": "100臺北市中正區汀洲路三段301號",
      "Latitude": "25.011785",
      "Longitude": "121.535881"
    },
    {
      "Administration": "經濟部",
      "Region": "臺北市",
      "HotspotName": "經濟部國際貿易局2樓廠商服務區",
      "Address": "100臺北市中正區湖口街1號",
      "Latitude": "25.033153",
      "Longitude": "121.514748"
    },
    {
      "Administration": "財政部",
      "Region": "臺北市",
      "HotspotName": "財政部臺北國稅局中正分局民眾服務區",
      "Address": "100臺北市中正區潮州街2號1樓",
      "Latitude": "25.029652",
      "Longitude": "121.520917"
    },
    {
      "Administration": "國家發展委員會",
      "Region": "臺北市",
      "HotspotName": "聯合辦公大樓北棟大廳民眾洽公區",
      "Address": "100臺北市中正區濟南路1段2-2號1樓",
      "Latitude": "25.0425125",
      "Longitude": "121.5200967"
    },
    {
      "Administration": "國家通訊傳播委員會",
      "Region": "臺北市",
      "HotspotName": "國家通訊傳播委員會濟南路辦公室1樓",
      "Address": "100臺北市中正區濟南路2段16號1樓",
      "Latitude": "25.041025",
      "Longitude": "121.527765"
    },
    {
      "Administration": "國家通訊傳播委員會",
      "Region": "臺北市",
      "HotspotName": "國家通訊傳播委員會濟南路辦公室2樓",
      "Address": "100臺北市中正區濟南路2段16號2樓",
      "Latitude": "25.041025",
      "Longitude": "121.527765"
    },
    {
      "Administration": "國家通訊傳播委員會",
      "Region": "臺北市",
      "HotspotName": "國家通訊傳播委員會濟南路辦公室7樓",
      "Address": "100臺北市中正區濟南路2段16號7樓",
      "Latitude": "25.041025",
      "Longitude": "121.527765"
    },
    {
      "Administration": "交通部",
      "Region": "臺北市",
      "HotspotName": "立法院郵局",
      "Address": "100臺北市中正區濟南路一段1號",
      "Latitude": "25.0432509",
      "Longitude": "121.519867"
    },
    {
      "Administration": "行政院人事行政總處",
      "Region": "臺北市",
      "HotspotName": "行政院人事行政總處",
      "Address": "100臺北市中正區濟南路一段2-2號10樓",
      "Latitude": "25.042633",
      "Longitude": "121.520183"
    },
    {
      "Administration": "國家發展委員會",
      "Region": "臺北市",
      "HotspotName": "國家發展委員會濟南辦公區",
      "Address": "100臺北市中正區濟南路一段2-2號6樓",
      "Latitude": "25.042726",
      "Longitude": "121.520105"
    },
    {
      "Administration": "外交部",
      "Region": "臺北市",
      "HotspotName": "外交部領事事務局(3樓大廳)",
      "Address": "100臺北市中正區濟南路一段2之2號3樓",
      "Latitude": "25.0425125",
      "Longitude": "121.5200967"
    },
    {
      "Administration": "外交部",
      "Region": "臺北市",
      "HotspotName": "外交部領事事務局(3樓詢問台)",
      "Address": "100臺北市中正區濟南路一段2之2號3樓",
      "Latitude": "25.0425125",
      "Longitude": "121.5200967"
    },
    {
      "Administration": "立法院",
      "Region": "臺北市",
      "HotspotName": "立法院委員研究大樓會客室",
      "Address": "100臺北市中正區濟南路一段3之1號",
      "Latitude": "25.043161",
      "Longitude": "121.521184"
    },
    {
      "Administration": "經濟部",
      "Region": "臺北市",
      "HotspotName": "標準檢驗局報驗發證業務民眾洽公區",
      "Address": "100臺北市中正區濟南路一段4號",
      "Latitude": "25.042573",
      "Longitude": "121.520572"
    },
    {
      "Administration": "經濟部",
      "Region": "臺北市",
      "HotspotName": "標準檢驗局資料中心閱覽室",
      "Address": "100臺北市中正區濟南路一段4號",
      "Latitude": "25.042573",
      "Longitude": "121.520572"
    },
    {
      "Administration": "文化部",
      "Region": "臺北市",
      "HotspotName": "文化部齊東詩舍",
      "Address": "100臺北市中正區濟南路二段27號",
      "Latitude": "25.041178",
      "Longitude": "121.528524"
    },
    {
      "Administration": "勞動部",
      "Region": "臺北市",
      "HotspotName": "行政院勞動部勞工保險局國民年金業務處洽公櫃台",
      "Address": "100臺北市中正區濟南路二段42號1樓",
      "Latitude": "25.040421",
      "Longitude": "121.53045"
    },
    {
      "Administration": "經濟部",
      "Region": "臺北市",
      "HotspotName": "經濟部C203會議室",
      "Address": "100臺北市中正區福州街15號1樓",
      "Latitude": "25.027985",
      "Longitude": "121.516952"
    },
    {
      "Administration": "經濟部",
      "Region": "臺北市",
      "HotspotName": "經濟部訓練教室1樓",
      "Address": "100臺北市中正區福州街15號1樓",
      "Latitude": "25.027985",
      "Longitude": "121.516952"
    },
    {
      "Administration": "經濟部",
      "Region": "臺北市",
      "HotspotName": "經濟部訓練教室2、3樓",
      "Address": "100臺北市中正區福州街15號2樓",
      "Latitude": "25.027985",
      "Longitude": "121.516952"
    },
    {
      "Administration": "經濟部",
      "Region": "臺北市",
      "HotspotName": "經濟部簡報會議室",
      "Address": "100臺北市中正區福州街15號A棟1樓",
      "Latitude": "25.027945",
      "Longitude": "121.516811"
    },
    {
      "Administration": "經濟部",
      "Region": "臺北市",
      "HotspotName": "經濟部第二會議室",
      "Address": "100臺北市中正區福州街15號B棟1樓",
      "Latitude": "25.027945",
      "Longitude": "121.516811"
    },
    {
      "Administration": "經濟部",
      "Region": "臺北市",
      "HotspotName": "經濟部記者室",
      "Address": "100臺北市中正區福州街15號B棟1樓",
      "Latitude": "25.027897",
      "Longitude": "121.516849"
    },
    {
      "Administration": "經濟部",
      "Region": "臺北市",
      "HotspotName": "經濟部總務司開標室",
      "Address": "100臺北市中正區福州街15號D207室",
      "Latitude": "25.028295",
      "Longitude": "121.516814"
    },
    {
      "Administration": "經濟部",
      "Region": "臺北市",
      "HotspotName": "經濟部商業司民眾服務大廳",
      "Address": "100臺北市中正區福州街15號D棟1樓",
      "Latitude": "25.0278968",
      "Longitude": "121.5168487"
    },
    {
      "Administration": "財政部",
      "Region": "臺北市",
      "HotspotName": "兆豐國際商銀",
      "Address": "100臺北市中正區福州街16號",
      "Latitude": "25.028472",
      "Longitude": "121.518171"
    },
    {
      "Administration": "財政部",
      "Region": "臺北市",
      "HotspotName": "兆豐國際商銀福州大樓",
      "Address": "100臺北市中正區福州街16號3樓",
      "Latitude": "25.028472",
      "Longitude": "121.518171"
    },
    {
      "Administration": "財政部",
      "Region": "臺北市",
      "HotspotName": "兆豐國際商業銀行資訊處福州街大樓8樓",
      "Address": "100臺北市中正區福州街16號8樓",
      "Latitude": "25.028472",
      "Longitude": "121.518171"
    },
    {
      "Administration": "交通部",
      "Region": "臺北市",
      "HotspotName": "台北中山堂郵局",
      "Address": "100臺北市中正區秀山街1號",
      "Latitude": "25.043122",
      "Longitude": "121.50896"
    },
    {
      "Administration": "行政院環境保護署",
      "Region": "臺北市",
      "HotspotName": "行政院環境保護署第2辦公室會議室(12F)",
      "Address": "100臺北市中正區秀山街4號12樓",
      "Latitude": "25.042823",
      "Longitude": "121.509143"
    },
    {
      "Administration": "行政院環境保護署",
      "Region": "臺北市",
      "HotspotName": "行政院環境保護署第2辦公室會議室(13F)",
      "Address": "100臺北市中正區秀山街4號13樓",
      "Latitude": "25.042823",
      "Longitude": "121.509143"
    },
    {
      "Administration": "行政院環境保護署",
      "Region": "臺北市",
      "HotspotName": "行政院環境保護署第2辦公室會議室(14F)",
      "Address": "100臺北市中正區秀山街4號14樓",
      "Latitude": "25.042823",
      "Longitude": "121.509143"
    },
    {
      "Administration": "勞動部",
      "Region": "臺北市",
      "HotspotName": "勞動部北區勞動檢查所會客室",
      "Address": "100臺北市中正區紹興北街31巷39號",
      "Latitude": "25.045559",
      "Longitude": "121.526717"
    },
    {
      "Administration": "經濟部",
      "Region": "臺北市",
      "HotspotName": "投審會5樓辦公區",
      "Address": "100臺北市中正區羅斯福路1段7號5樓",
      "Latitude": "25.033561",
      "Longitude": "121.5179367"
    },
    {
      "Administration": "經濟部",
      "Region": "臺北市",
      "HotspotName": "投審會8樓辦公區",
      "Address": "100臺北市中正區羅斯福路1段7號8樓",
      "Latitude": "25.033561",
      "Longitude": "121.5179367"
    },
    {
      "Administration": "財政部",
      "Region": "臺北市",
      "HotspotName": "兆豐國際商銀南台北分行",
      "Address": "100臺北市中正區羅斯福路2段9-1號",
      "Latitude": "25.028703",
      "Longitude": "121.521406"
    },
    {
      "Administration": "勞動部",
      "Region": "臺北市",
      "HotspotName": "行政院勞動部勞工保險局臺北市辦事處洽公櫃台",
      "Address": "100臺北市中正區羅斯福路一段4號1樓",
      "Latitude": "25.033182",
      "Longitude": "121.517642"
    },
    {
      "Administration": "財政部",
      "Region": "臺北市",
      "HotspotName": "華南商業銀行公館分行",
      "Address": "100臺北市中正區羅斯福路三段216號",
      "Latitude": "25.019837",
      "Longitude": "121.530333"
    },
    {
      "Administration": "經濟部",
      "Region": "臺北市",
      "HotspotName": "台電公司台電大樓主樓會客室",
      "Address": "100臺北市中正區羅斯福路三段242號",
      "Latitude": "25.017679",
      "Longitude": "121.531062"
    },
    {
      "Administration": "經濟部",
      "Region": "臺北市",
      "HotspotName": "台電公司台電大樓副樓會客室",
      "Address": "100臺北市中正區羅斯福路三段242號",
      "Latitude": "25.017679",
      "Longitude": "121.531062"
    },
    {
      "Administration": "經濟部",
      "Region": "臺北市",
      "HotspotName": "中油公司台北直銷中心",
      "Address": "100臺北市中正區莒光路2號2樓",
      "Latitude": "25.031393",
      "Longitude": "121.5073019"
    },
    {
      "Administration": "財政部",
      "Region": "臺北市",
      "HotspotName": "彰化商業銀行城內分行",
      "Address": "100臺北市中正區衡陽路68號1樓",
      "Latitude": "25.042473",
      "Longitude": "121.511811"
    },
    {
      "Administration": "財政部",
      "Region": "臺北市",
      "HotspotName": "彰化商業銀行證券經紀商台北總公司",
      "Address": "100臺北市中正區衡陽路68號3樓",
      "Latitude": "25.042483",
      "Longitude": "121.511752"
    },
    {
      "Administration": "財政部",
      "Region": "臺北市",
      "HotspotName": "兆豐國際商銀衡陽分行",
      "Address": "100臺北市中正區衡陽路91號",
      "Latitude": "25.042356",
      "Longitude": "121.510294"
    },
    {
      "Administration": "文化部",
      "Region": "臺北市",
      "HotspotName": "國立臺灣博物館土銀館1F服務台",
      "Address": "100臺北市中正區襄陽路25號",
      "Latitude": "25.0435666",
      "Longitude": "121.5141619"
    },
    {
      "Administration": "文化部",
      "Region": "臺北市",
      "HotspotName": "國立臺灣博物館本館1F服務台",
      "Address": "100臺北市中正區襄陽路2號1F",
      "Latitude": "25.043129",
      "Longitude": "121.515051"
    },
    {
      "Administration": "文化部",
      "Region": "臺北市",
      "HotspotName": "國立臺灣博物館本館3F視聽教室",
      "Address": "100臺北市中正區襄陽路2號3F",
      "Latitude": "25.043129",
      "Longitude": "121.515051"
    },
    {
      "Administration": "財政部",
      "Region": "臺北市",
      "HotspotName": "兆豐國際商銀城中分行",
      "Address": "100臺北市中正區許昌街42號",
      "Latitude": "25.045496",
      "Longitude": "121.515363"
    },
    {
      "Administration": "法務部",
      "Region": "臺北市",
      "HotspotName": "最高法院檢察署",
      "Address": "100臺北市中正區貴陽街1段235號",
      "Latitude": "25.039341",
      "Longitude": "121.509531"
    },
    {
      "Administration": "財政部",
      "Region": "臺北市",
      "HotspotName": "臺灣銀行公庫部",
      "Address": "100臺北市中正區貴陽街一段120號",
      "Latitude": "25.039124",
      "Longitude": "121.508446"
    },
    {
      "Administration": "臺灣高等法院",
      "Region": "臺北市",
      "HotspotName": "臺灣高等法院民事庭大廈",
      "Address": "100臺北市中正區貴陽街一段233號",
      "Latitude": "25.039707",
      "Longitude": "121.50984"
    },
    {
      "Administration": "國防部",
      "Region": "臺北市",
      "HotspotName": "國防部中華福利站服務台",
      "Address": "100臺北市中正區貴陽街一段243號",
      "Latitude": "25.039513",
      "Longitude": "121.507854"
    },
    {
      "Administration": "財政部",
      "Region": "臺北市",
      "HotspotName": "華南商業銀行營業部",
      "Address": "100臺北市中正區重慶南路1段38號",
      "Latitude": "25.045423",
      "Longitude": "121.513016"
    },
    {
      "Administration": "交通部",
      "Region": "臺北市",
      "HotspotName": "郵政博物館",
      "Address": "100臺北市中正區重慶南路2段45號",
      "Latitude": "25.031731",
      "Longitude": "121.514696"
    },
    {
      "Administration": "財政部",
      "Region": "臺北市",
      "HotspotName": "臺灣銀行營業部",
      "Address": "100臺北市中正區重慶南路一段120號",
      "Latitude": "25.041554",
      "Longitude": "121.512909"
    },
    {
      "Administration": "法務部",
      "Region": "臺北市",
      "HotspotName": "法務部2樓會議室",
      "Address": "100臺北市中正區重慶南路一段130號",
      "Latitude": "25.03675",
      "Longitude": "121.51252"
    },
    {
      "Administration": "財政部",
      "Region": "臺北市",
      "HotspotName": "彰化商業銀行臺北分行",
      "Address": "100臺北市中正區重慶南路一段27號",
      "Latitude": "25.045836",
      "Longitude": "121.513381"
    },
    {
      "Administration": "財政部",
      "Region": "臺北市",
      "HotspotName": "第一商業銀行營業部分行",
      "Address": "100臺北市中正區重慶南路一段30號",
      "Latitude": "25.045443",
      "Longitude": "121.512961"
    },
    {
      "Administration": "財政部",
      "Region": "臺北市",
      "HotspotName": "第一金融控股股份有限公司",
      "Address": "100臺北市中正區重慶南路一段30號18樓",
      "Latitude": "25.045462",
      "Longitude": "121.512952"
    },
    {
      "Administration": "交通部",
      "Region": "臺北市",
      "HotspotName": "台北南海郵局",
      "Address": "100臺北市中正區重慶南路二段43號",
      "Latitude": "25.03182",
      "Longitude": "121.514701"
    },
    {
      "Administration": "財政部",
      "Region": "臺北市",
      "HotspotName": "彰化商業銀行中正分行",
      "Address": "100臺北市中正區金山南路一段47號1樓",
      "Latitude": "25.039261",
      "Longitude": "121.528914"
    },
    {
      "Administration": "文化部",
      "Region": "臺北市",
      "HotspotName": "文化部影視及流行音樂產業局",
      "Address": "100臺北市中正區開封街一段三號",
      "Latitude": "25.046169",
      "Longitude": "121.514408"
    },
    {
      "Administration": "金融監督管理委員會",
      "Region": "臺北市",
      "HotspotName": "上海商銀城中分行",
      "Address": "100臺北市中正區館前路28號",
      "Latitude": "25.044713",
      "Longitude": "121.514872"
    },
    {
      "Administration": "財政部",
      "Region": "臺北市",
      "HotspotName": "臺灣土地銀行營業部",
      "Address": "100臺北市中正區館前路46號",
      "Latitude": "25.044135",
      "Longitude": "121.514889"
    },
    {
      "Administration": "財政部",
      "Region": "臺北市",
      "HotspotName": "臺灣銀行館前分行",
      "Address": "100臺北市中正區館前路49號",
      "Latitude": "25.04496",
      "Longitude": "121.515163"
    },
    {
      "Administration": "經濟部",
      "Region": "臺北市",
      "HotspotName": "行政院台商聯合服務中心",
      "Address": "100臺北市中正區館前路71號8樓",
      "Latitude": "25.044021",
      "Longitude": "121.515167"
    },
    {
      "Administration": "財政部",
      "Region": "臺北市",
      "HotspotName": "合庫營業部營業廳",
      "Address": "100臺北市中正區館前路77號",
      "Latitude": "25.044256",
      "Longitude": "121.515226"
    },
    {
      "Administration": "財政部",
      "Region": "臺北市",
      "HotspotName": "兆豐國際商銀大同分行",
      "Address": "103臺北市大同區南京西路113號",
      "Latitude": "25.05386",
      "Longitude": "121.515546"
    },
    {
      "Administration": "財政部",
      "Region": "臺北市",
      "HotspotName": "彰化商業銀行建成分行",
      "Address": "103臺北市大同區南京西路123號1樓",
      "Latitude": "25.054124",
      "Longitude": "121.515143"
    },
    {
      "Administration": "財政部",
      "Region": "臺北市",
      "HotspotName": "華南商業銀行建成分行",
      "Address": "103臺北市大同區南京西路228號",
      "Latitude": "25.053471",
      "Longitude": "121.516256"
    },
    {
      "Administration": "財政部",
      "Region": "臺北市",
      "HotspotName": "臺灣銀行延平分行",
      "Address": "103臺北市大同區南京西路406號",
      "Latitude": "25.053257",
      "Longitude": "121.509926"
    },
    {
      "Administration": "財政部",
      "Region": "臺北市",
      "HotspotName": "財政部關務署",
      "Address": "103臺北市大同區塔城街13號",
      "Latitude": "25.051225",
      "Longitude": "121.51063"
    },
    {
      "Administration": "財政部",
      "Region": "臺北市",
      "HotspotName": "臺灣中小企業銀行營業部",
      "Address": "103臺北市大同區塔城街30號",
      "Latitude": "25.051182",
      "Longitude": "121.510294"
    },
    {
      "Administration": "衛生福利部",
      "Region": "臺北市",
      "HotspotName": "國民健康署1樓大廳",
      "Address": "103臺北市大同區塔城街36號",
      "Latitude": "25.051582",
      "Longitude": "121.510293"
    },
    {
      "Administration": "財政部",
      "Region": "臺北市",
      "HotspotName": "華南商業銀行大稻埕分行",
      "Address": "103臺北市大同區延平北路2段96號",
      "Latitude": "25.060566",
      "Longitude": "121.511536"
    },
    {
      "Administration": "財政部",
      "Region": "臺北市",
      "HotspotName": "彰化商業銀行北門分行",
      "Address": "103臺北市大同區延平北路一段19號1樓",
      "Latitude": "25.050336",
      "Longitude": "121.512192"
    },
    {
      "Administration": "勞動部",
      "Region": "臺北市",
      "HotspotName": "勞動部職業訓練局一樓櫃台",
      "Address": "103臺北市大同區延平北路二段83號",
      "Latitude": "25.056197",
      "Longitude": "121.511753"
    },
    {
      "Administration": "財政部",
      "Region": "臺北市",
      "HotspotName": "第一商業銀行建成分行",
      "Address": "103臺北市大同區承德路一段40號",
      "Latitude": "25.051152",
      "Longitude": "121.516752"
    },
    {
      "Administration": "交通部",
      "Region": "臺北市",
      "HotspotName": "台北大同郵局",
      "Address": "103臺北市大同區承德路三段83號",
      "Latitude": "25.065848",
      "Longitude": "121.518601"
    },
    {
      "Administration": "財政部",
      "Region": "臺北市",
      "HotspotName": "臺灣銀行民權分行",
      "Address": "103臺北市大同區承德路二段239號2樓",
      "Latitude": "25.062548",
      "Longitude": "121.51862"
    },
    {
      "Administration": "金融監督管理委員會",
      "Region": "臺北市",
      "HotspotName": "上海商銀承德分行",
      "Address": "103臺北市大同區承德路二段77號",
      "Latitude": "25.055886",
      "Longitude": "121.518393"
    },
    {
      "Administration": "財政部",
      "Region": "臺北市",
      "HotspotName": "財政部臺北國稅局大同稽徵所民眾服務區",
      "Address": "103臺北市大同區昌吉街57號3樓之4",
      "Latitude": "25.066028",
      "Longitude": "121.515458"
    },
    {
      "Administration": "交通部",
      "Region": "臺北市",
      "HotspotName": "台北台北橋郵局",
      "Address": "103臺北市大同區民權西路246號",
      "Latitude": "25.062771",
      "Longitude": "121.512713"
    },
    {
      "Administration": "財政部",
      "Region": "臺北市",
      "HotspotName": "兆豐國際商銀大稻程分行",
      "Address": "103臺北市大同區西寧北路62-5號",
      "Latitude": "25.053075",
      "Longitude": "121.508542"
    },
    {
      "Administration": "財政部",
      "Region": "臺北市",
      "HotspotName": "彰化商業銀行永樂分行",
      "Address": "103臺北市大同區迪化街一段120號1樓",
      "Latitude": "25.056777",
      "Longitude": "121.510576"
    },
    {
      "Administration": "交通部",
      "Region": "臺北市",
      "HotspotName": "台北迪化街郵局",
      "Address": "103臺北市大同區迪化街一段38號",
      "Latitude": "25.054789",
      "Longitude": "121.509986"
    },
    {
      "Administration": "財政部",
      "Region": "臺北市",
      "HotspotName": "第一商業銀行大稻埕分行",
      "Address": "103臺北市大同區迪化街一段63號",
      "Latitude": "25.055781",
      "Longitude": "121.51015"
    },
    {
      "Administration": "財政部",
      "Region": "臺北市",
      "HotspotName": "彰化商業銀行大同分行",
      "Address": "103臺北市大同區重慶北路三段199號",
      "Latitude": "25.069768",
      "Longitude": "121.514002"
    },
    {
      "Administration": "財政部",
      "Region": "臺北市",
      "HotspotName": "華南商業銀行大同分行",
      "Address": "103臺北市大同區重慶北路三段276號",
      "Latitude": "25.072558",
      "Longitude": "121.513638"
    },
    {
      "Administration": "交通部",
      "Region": "臺北市",
      "HotspotName": "台北大龍峒郵局",
      "Address": "103臺北市大同區重慶北路三段338號",
      "Latitude": "25.07604",
      "Longitude": "121.513639"
    },
    {
      "Administration": "交通部",
      "Region": "臺北市",
      "HotspotName": "台北圓環郵局",
      "Address": "103臺北市大同區重慶北路二段15號",
      "Latitude": "25.054635",
      "Longitude": "121.514475"
    },
    {
      "Administration": "交通部",
      "Region": "臺北市",
      "HotspotName": "台北保安郵局",
      "Address": "103臺北市大同區重慶北路二段183號",
      "Latitude": "25.0598942",
      "Longitude": "121.5136707"
    },
    {
      "Administration": "財政部",
      "Region": "臺北市",
      "HotspotName": "第一商業銀行(大同分行)",
      "Address": "103臺北市大同區重慶北路３段56號",
      "Latitude": "25.0655825",
      "Longitude": "121.5134268"
    },
    {
      "Administration": "財政部",
      "Region": "臺北市",
      "HotspotName": "兆豐國際商銀中山分行",
      "Address": "104臺北市中山區中山北路2段15號",
      "Latitude": "25.052875",
      "Longitude": "121.522769"
    },
    {
      "Administration": "交通部",
      "Region": "臺北市",
      "HotspotName": "台北中山郵局",
      "Address": "104臺北市中山區中山北路一段142號",
      "Latitude": "25.051482",
      "Longitude": "121.522115"
    },
    {
      "Administration": "財政部",
      "Region": "臺北市",
      "HotspotName": "臺灣銀行中山分行",
      "Address": "104臺北市中山區中山北路一段150號",
      "Latitude": "25.051828",
      "Longitude": "121.522238"
    },
    {
      "Administration": "衛生福利部",
      "Region": "臺北市",
      "HotspotName": "中央健康保險署-臺北業務組興南大樓1樓投保單位服務中心",
      "Address": "104臺北市中山區中山北路一段7號1樓",
      "Latitude": "25.0483186",
      "Longitude": "121.5211699"
    },
    {
      "Administration": "財政部",
      "Region": "臺北市",
      "HotspotName": "彰化商業銀行中山北路分行",
      "Address": "104臺北市中山區中山北路二段111號",
      "Latitude": "25.060196",
      "Longitude": "121.523139"
    },
    {
      "Administration": "財政部",
      "Region": "臺北市",
      "HotspotName": "華南商業銀行圓山分行",
      "Address": "104臺北市中山區中山北路二段112號",
      "Latitude": "25.061188",
      "Longitude": "121.522844"
    },
    {
      "Administration": "財政部",
      "Region": "臺北市",
      "HotspotName": "兆豐國際商銀圓山分行",
      "Address": "104臺北市中山區中山北路二段133號",
      "Latitude": "25.061611",
      "Longitude": "121.523158"
    },
    {
      "Administration": "財政部",
      "Region": "臺北市",
      "HotspotName": "臺灣土地銀行城東分行",
      "Address": "104臺北市中山區中山北路二段46號之2",
      "Latitude": "25.0554839",
      "Longitude": "121.522477"
    },
    {
      "Administration": "財政部",
      "Region": "臺北市",
      "HotspotName": "彰化商業銀行總部分行",
      "Address": "104臺北市中山區中山北路二段57號1樓",
      "Latitude": "25.055505",
      "Longitude": "121.522962"
    },
    {
      "Administration": "交通部",
      "Region": "臺北市",
      "HotspotName": "台北雙連郵局",
      "Address": "104臺北市中山區中山北路二段96號",
      "Latitude": "25.059484",
      "Longitude": "121.522657"
    },
    {
      "Administration": "財政部",
      "Region": "臺北市",
      "HotspotName": "第一商業銀行(中山分行)",
      "Address": "104臺北市中山區中山北路２段61號",
      "Latitude": "25.05615",
      "Longitude": "121.522996"
    },
    {
      "Administration": "國家發展委員會",
      "Region": "臺北市",
      "HotspotName": "國家檔案及圖書閱覽中心",
      "Address": "104臺北市中山區伊通街59巷10號",
      "Latitude": "25.051396",
      "Longitude": "121.535399"
    },
    {
      "Administration": "財政部",
      "Region": "臺北市",
      "HotspotName": "彰化商業銀行中崙分行",
      "Address": "104臺北市中山區八德路2段201號1樓",
      "Latitude": "25.046801",
      "Longitude": "121.539684"
    },
    {
      "Administration": "財政部",
      "Region": "臺北市",
      "HotspotName": "華南商業銀行長安分行",
      "Address": "104臺北市中山區八德路二段205號",
      "Latitude": "25.046889",
      "Longitude": "121.539767"
    },
    {
      "Administration": "經濟部",
      "Region": "臺北市",
      "HotspotName": "中油公司台北市中山區中崙站",
      "Address": "104臺北市中山區八德路二段214號",
      "Latitude": "25.046359",
      "Longitude": "121.539601"
    },
    {
      "Administration": "交通部",
      "Region": "臺北市",
      "HotspotName": "台北大直郵局",
      "Address": "104臺北市中山區北安路518巷14弄18、20號",
      "Latitude": "25.079086",
      "Longitude": "121.545623"
    },
    {
      "Administration": "財政部",
      "Region": "臺北市",
      "HotspotName": "彰化商業銀行大直分行",
      "Address": "104臺北市中山區北安路589號",
      "Latitude": "25.081936",
      "Longitude": "121.548625"
    },
    {
      "Administration": "交通部",
      "Region": "臺北市",
      "HotspotName": "台北北安郵局",
      "Address": "104臺北市中山區北安路630巷10號",
      "Latitude": "25.082658",
      "Longitude": "121.549846"
    },
    {
      "Administration": "法務部",
      "Region": "臺北市",
      "HotspotName": "行政執行署臺北分署5樓等候區",
      "Address": "104臺北市中山區南京東路2段1號",
      "Latitude": "25.05211",
      "Longitude": "121.527951"
    },
    {
      "Administration": "財政部",
      "Region": "臺北市",
      "HotspotName": "兆豐國際商銀台北復興分行",
      "Address": "104臺北市中山區南京東路3段198號",
      "Latitude": "25.051622",
      "Longitude": "121.542944"
    },
    {
      "Administration": "財政部",
      "Region": "臺北市",
      "HotspotName": "臺灣土地銀行南京東路分行",
      "Address": "104臺北市中山區南京東路3段70號1樓",
      "Latitude": "25.051753",
      "Longitude": "121.5388895"
    },
    {
      "Administration": "金融監督管理委員會",
      "Region": "臺北市",
      "HotspotName": "上海商銀中山分行",
      "Address": "104臺北市中山區南京東路一段46號",
      "Latitude": "25.051953",
      "Longitude": "121.524407"
    },
    {
      "Administration": "財政部",
      "Region": "臺北市",
      "HotspotName": "第一商業銀行城東分行",
      "Address": "104臺北市中山區南京東路三段103號",
      "Latitude": "25.052262",
      "Longitude": "121.539515"
    },
    {
      "Administration": "財政部",
      "Region": "臺北市",
      "HotspotName": "財政部臺北國稅局松山分局民眾服務區",
      "Address": "104臺北市中山區南京東路三段131號4F",
      "Latitude": "25.052382",
      "Longitude": "121.540761"
    },
    {
      "Administration": "財政部",
      "Region": "臺北市",
      "HotspotName": "華南商業銀行南京東路分行",
      "Address": "104臺北市中山區南京東路三段217號",
      "Latitude": "25.052057",
      "Longitude": "121.542891"
    },
    {
      "Administration": "財政部",
      "Region": "臺北市",
      "HotspotName": "彰化商業銀行城東分行",
      "Address": "104臺北市中山區南京東路三段225號",
      "Latitude": "25.052134",
      "Longitude": "121.544362"
    },
    {
      "Administration": "財政部",
      "Region": "臺北市",
      "HotspotName": "第一商業銀行南京東路分行",
      "Address": "104臺北市中山區南京東路二段125號",
      "Latitude": "25.052322",
      "Longitude": "121.534423"
    },
    {
      "Administration": "財政部",
      "Region": "臺北市",
      "HotspotName": "華南商業銀行儲蓄分行",
      "Address": "104臺北市中山區南京東路二段160號",
      "Latitude": "25.051877",
      "Longitude": "121.53456"
    },
    {
      "Administration": "財政部",
      "Region": "臺北市",
      "HotspotName": "兆豐國際商銀南京東路分行",
      "Address": "104臺北市中山區南京東路二段53號",
      "Latitude": "25.052297",
      "Longitude": "121.529879"
    },
    {
      "Administration": "財政部",
      "Region": "臺北市",
      "HotspotName": "合庫自強分行營業廳",
      "Address": "104臺北市中山區南京東路二段85號",
      "Latitude": "25.05281",
      "Longitude": "121.531899"
    },
    {
      "Administration": "財政部",
      "Region": "臺北市",
      "HotspotName": "彰化商業銀行吉林分行",
      "Address": "104臺北市中山區南京東路二段98號1樓",
      "Latitude": "25.052062",
      "Longitude": "121.531602"
    },
    {
      "Administration": "財政部",
      "Region": "臺北市",
      "HotspotName": "第一商業銀行(新生分行)",
      "Address": "104臺北市中山區南京東路２段8號",
      "Latitude": "25.0518629",
      "Longitude": "121.5286755"
    },
    {
      "Administration": "財政部",
      "Region": "臺北市",
      "HotspotName": "兆豐國際商銀國外部",
      "Address": "104臺北市中山區吉林路100號",
      "Latitude": "25.053133",
      "Longitude": "121.530011"
    },
    {
      "Administration": "財政部",
      "Region": "臺北市",
      "HotspotName": "兆豐國際商業銀行信託部11樓",
      "Address": "104臺北市中山區吉林路100號11樓",
      "Latitude": "25.053133",
      "Longitude": "121.530011"
    },
    {
      "Administration": "財政部",
      "Region": "臺北市",
      "HotspotName": "兆豐國際商業銀行卡務中心4樓",
      "Address": "104臺北市中山區吉林路100號4樓",
      "Latitude": "25.053133",
      "Longitude": "121.530011"
    },
    {
      "Administration": "財政部",
      "Region": "臺北市",
      "HotspotName": "兆豐國際商業銀行投資部7樓",
      "Address": "104臺北市中山區吉林路100號7樓",
      "Latitude": "25.053133",
      "Longitude": "121.530011"
    },
    {
      "Administration": "財政部",
      "Region": "臺北市",
      "HotspotName": "兆豐國際商業銀行授信管理處8樓",
      "Address": "104臺北市中山區吉林路100號8樓",
      "Latitude": "25.053133",
      "Longitude": "121.530011"
    },
    {
      "Administration": "財政部",
      "Region": "臺北市",
      "HotspotName": "第一商業銀行(吉林分行)",
      "Address": "104臺北市中山區吉林路136號",
      "Latitude": "25.0553599",
      "Longitude": "121.5299789"
    },
    {
      "Administration": "交通部",
      "Region": "臺北市",
      "HotspotName": "台北建北郵局",
      "Address": "104臺北市中山區建國北路二段33號",
      "Latitude": "25.055017",
      "Longitude": "121.537188"
    },
    {
      "Administration": "交通部",
      "Region": "臺北市",
      "HotspotName": "台北興安郵局",
      "Address": "104臺北市中山區復興北路210、212號",
      "Latitude": "25.055728",
      "Longitude": "121.543485"
    },
    {
      "Administration": "經濟部",
      "Region": "臺北市",
      "HotspotName": "經濟部能源局會客室",
      "Address": "104臺北市中山區復興北路2號13樓",
      "Latitude": "25.047912",
      "Longitude": "121.5437"
    },
    {
      "Administration": "交通部",
      "Region": "臺北市",
      "HotspotName": "台北中崙郵局",
      "Address": "104臺北市中山區復興北路40號",
      "Latitude": "25.049244",
      "Longitude": "121.543832"
    },
    {
      "Administration": "財政部",
      "Region": "臺北市",
      "HotspotName": "第一商業銀行(復興分行)",
      "Address": "104臺北市中山區復興南路１段36-10號",
      "Latitude": "25.045857",
      "Longitude": "121.543643"
    },
    {
      "Administration": "財政部",
      "Region": "臺北市",
      "HotspotName": "財政部臺北國稅局中南稽徵所民眾服務區",
      "Address": "104臺北市中山區德惠街16-5號3樓",
      "Latitude": "25.066601",
      "Longitude": "121.5246"
    },
    {
      "Administration": "財政部",
      "Region": "臺北市",
      "HotspotName": "第一商業銀行(大直分行)",
      "Address": "104臺北市中山區明水路588號",
      "Latitude": "25.0807033",
      "Longitude": "121.5520412"
    },
    {
      "Administration": "教育部",
      "Region": "臺北市",
      "HotspotName": "教育部體育署1樓會客廳",
      "Address": "104臺北市中山區朱崙街20號1樓",
      "Latitude": "25.049898",
      "Longitude": "121.539446"
    },
    {
      "Administration": "教育部",
      "Region": "臺北市",
      "HotspotName": "教育部體育署3樓會議室",
      "Address": "104臺北市中山區朱崙街20號3樓",
      "Latitude": "25.049898",
      "Longitude": "121.539446"
    },
    {
      "Administration": "財政部",
      "Region": "臺北市",
      "HotspotName": "臺灣銀行松江分行",
      "Address": "104臺北市中山區松江路115號",
      "Latitude": "25.051699",
      "Longitude": "121.533269"
    },
    {
      "Administration": "財政部",
      "Region": "臺北市",
      "HotspotName": "華南商業銀行城東分行",
      "Address": "104臺北市中山區松江路146號",
      "Latitude": "25.054073",
      "Longitude": "121.532929"
    },
    {
      "Administration": "財政部",
      "Region": "臺北市",
      "HotspotName": "兆豐國際商銀城北分行",
      "Address": "104臺北市中山區松江路156之一號",
      "Latitude": "25.054501",
      "Longitude": "121.532862"
    },
    {
      "Administration": "財政部",
      "Region": "臺北市",
      "HotspotName": "彰化商業銀行松江分行",
      "Address": "104臺北市中山區松江路261號",
      "Latitude": "25.059716",
      "Longitude": "121.533467"
    },
    {
      "Administration": "財政部",
      "Region": "臺北市",
      "HotspotName": "第一商業銀行松江分行2F",
      "Address": "104臺北市中山區松江路309號",
      "Latitude": "25.061733",
      "Longitude": "121.533451"
    },
    {
      "Administration": "法務部",
      "Region": "臺北市",
      "HotspotName": "法務部廉政署",
      "Address": "104臺北市中山區松江路318號6樓",
      "Latitude": "25.061052",
      "Longitude": "121.532671"
    },
    {
      "Administration": "交通部",
      "Region": "臺北市",
      "HotspotName": "台北松江路郵局",
      "Address": "104臺北市中山區松江路364號",
      "Latitude": "25.062056",
      "Longitude": "121.532979"
    },
    {
      "Administration": "財政部",
      "Region": "臺北市",
      "HotspotName": "財政部臺北國稅局中北稽徵所民眾服務區",
      "Address": "104臺北市中山區松江路367號4樓",
      "Latitude": "25.064407",
      "Longitude": "121.533507"
    },
    {
      "Administration": "內政部",
      "Region": "臺北市",
      "HotspotName": "內政部資訊中心1樓會議室",
      "Address": "104臺北市中山區松江路469巷4號",
      "Latitude": "25.066283",
      "Longitude": "121.534137"
    },
    {
      "Administration": "財政部",
      "Region": "臺北市",
      "HotspotName": "臺灣銀行臺北分行",
      "Address": "104臺北市中山區松江路80號",
      "Latitude": "25.049909",
      "Longitude": "121.532713"
    },
    {
      "Administration": "國家發展委員會",
      "Region": "臺北市",
      "HotspotName": "國家發展委員會-法協中心",
      "Address": "104臺北市中山區松江路85巷9號1樓",
      "Latitude": "25.050302",
      "Longitude": "121.534281"
    },
    {
      "Administration": "金融監督管理委員會",
      "Region": "臺北市",
      "HotspotName": "上海商銀東台北分行",
      "Address": "104臺北市中山區松江路89號",
      "Latitude": "25.050521",
      "Longitude": "121.533224"
    },
    {
      "Administration": "交通部",
      "Region": "臺北市",
      "HotspotName": "台北圓山郵局",
      "Address": "104臺北市中山區林森北路573號",
      "Latitude": "25.064958",
      "Longitude": "121.525839"
    },
    {
      "Administration": "財政部",
      "Region": "臺北市",
      "HotspotName": "臺灣銀行圓山分行",
      "Address": "104臺北市中山區林森北路577號",
      "Latitude": "25.065206",
      "Longitude": "121.525818"
    },
    {
      "Administration": "財政部",
      "Region": "臺北市",
      "HotspotName": "彰化商業銀行晴光分行",
      "Address": "104臺北市中山區林森北路609號",
      "Latitude": "25.06629",
      "Longitude": "121.52586"
    },
    {
      "Administration": "財政部",
      "Region": "臺北市",
      "HotspotName": "華南商業銀行大直分行",
      "Address": "104臺北市中山區樂群三路56號",
      "Latitude": "25.082488",
      "Longitude": "121.552771"
    },
    {
      "Administration": "交通部",
      "Region": "臺北市",
      "HotspotName": "台北樂群二路郵局",
      "Address": "104臺北市中山區樂群二路147號",
      "Latitude": "25.0799399",
      "Longitude": "121.558227"
    },
    {
      "Administration": "金融監督管理委員會",
      "Region": "臺北市",
      "HotspotName": "上海商銀國際金融業務分行",
      "Address": "104臺北市中山區民權東路一段2號",
      "Latitude": "25.062558",
      "Longitude": "121.523009"
    },
    {
      "Administration": "金融監督管理委員會",
      "Region": "臺北市",
      "HotspotName": "上海商銀營業部",
      "Address": "104臺北市中山區民權東路一段2號",
      "Latitude": "25.062558",
      "Longitude": "121.523009"
    },
    {
      "Administration": "交通部",
      "Region": "臺北市",
      "HotspotName": "台北民權郵局",
      "Address": "104臺北市中山區民權西路22號",
      "Latitude": "25.062625",
      "Longitude": "121.52179"
    },
    {
      "Administration": "財政部",
      "Region": "臺北市",
      "HotspotName": "臺灣土地銀行民權分行",
      "Address": "104臺北市中山區民權西路26號",
      "Latitude": "25.0626432",
      "Longitude": "121.5216131"
    },
    {
      "Administration": "財政部",
      "Region": "臺北市",
      "HotspotName": "第一商業銀行(圓山分行)",
      "Address": "104臺北市中山區民權西路53號",
      "Latitude": "25.0630067",
      "Longitude": "121.5205425"
    },
    {
      "Administration": "財政部",
      "Region": "臺北市",
      "HotspotName": "華南商業銀行龍江分行",
      "Address": "104臺北市中山區民生東路二段145號",
      "Latitude": "25.058214",
      "Longitude": "121.534624"
    },
    {
      "Administration": "金融監督管理委員會",
      "Region": "臺北市",
      "HotspotName": "上海商銀儲蓄部分行",
      "Address": "104臺北市中山區民生東路二段149號",
      "Latitude": "25.058166",
      "Longitude": "121.535297"
    },
    {
      "Administration": "財政部",
      "Region": "臺北市",
      "HotspotName": "第一商業銀行建國分行",
      "Address": "104臺北市中山區民生東路二段161號",
      "Latitude": "25.058144",
      "Longitude": "121.536358"
    },
    {
      "Administration": "財政部",
      "Region": "臺北市",
      "HotspotName": "華南商業銀行中山分行",
      "Address": "104臺北市中山區長安東路一段18號",
      "Latitude": "25.049875",
      "Longitude": "121.523509"
    },
    {
      "Administration": "財政部",
      "Region": "臺北市",
      "HotspotName": "第一金證券華山分公司",
      "Address": "104臺北市中山區長安東路一段22號4樓",
      "Latitude": "25.049175",
      "Longitude": "121.524732"
    },
    {
      "Administration": "財政部",
      "Region": "臺北市",
      "HotspotName": "彰化商業銀行長安東路分行",
      "Address": "104臺北市中山區長安東路一段23之1號",
      "Latitude": "25.049468",
      "Longitude": "121.523757"
    },
    {
      "Administration": "財政部",
      "Region": "臺北市",
      "HotspotName": "臺灣土地銀行長安分行",
      "Address": "104臺北市中山區長安東路二段52號",
      "Latitude": "25.048352",
      "Longitude": "121.53253"
    },
    {
      "Administration": "交通部",
      "Region": "臺北市",
      "HotspotName": "台北長安郵局",
      "Address": "104臺北市中山區長安東路二段97號",
      "Latitude": "25.048546",
      "Longitude": "121.534813"
    },
    {
      "Administration": "財政部",
      "Region": "臺北市",
      "HotspotName": "第一商業銀行(華山分行)",
      "Address": "104臺北市中山區長安東路１段22號",
      "Latitude": "25.0490121",
      "Longitude": "121.5246365"
    },
    {
      "Administration": "交通部",
      "Region": "臺北市",
      "HotspotName": "台北長春路郵局",
      "Address": "104臺北市中山區長春路129號之2",
      "Latitude": "25.054956",
      "Longitude": "121.53056"
    },
    {
      "Administration": "金融監督管理委員會",
      "Region": "臺北市",
      "HotspotName": "上海商銀松江分行",
      "Address": "104臺北市中山區長春路143號",
      "Latitude": "25.054994",
      "Longitude": "121.532034"
    },
    {
      "Administration": "財政部",
      "Region": "臺北市",
      "HotspotName": "臺灣土地銀行長春分行",
      "Address": "104臺北市中山區長春路156號",
      "Latitude": "25.054593",
      "Longitude": "121.532151"
    },
    {
      "Administration": "交通部",
      "Region": "臺北市",
      "HotspotName": "台北龍江路郵局",
      "Address": "104臺北市中山區龍江路335號",
      "Latitude": "25.0631985",
      "Longitude": "121.5410116"
    },
    {
      "Administration": "財政部",
      "Region": "臺北市",
      "HotspotName": "彰化商業銀行松山分行",
      "Address": "105臺北市信義區永吉路165號",
      "Latitude": "25.045855",
      "Longitude": "121.571403"
    },
    {
      "Administration": "國防部",
      "Region": "臺北市",
      "HotspotName": "國軍松山總醫院一樓大廳候診區",
      "Address": "105臺北市松山區健康路131號",
      "Latitude": "25.054373",
      "Longitude": "121.557672"
    },
    {
      "Administration": "國防部",
      "Region": "臺北市",
      "HotspotName": "國軍松山總醫院一樓販賣部用餐區",
      "Address": "105臺北市松山區健康路131號",
      "Latitude": "25.054373",
      "Longitude": "121.557672"
    },
    {
      "Administration": "財政部",
      "Region": "臺北市",
      "HotspotName": "第一商業銀行(光復分行)",
      "Address": "105臺北市松山區光復北路16號",
      "Latitude": "25.0490742",
      "Longitude": "121.5576489"
    },
    {
      "Administration": "國軍退除役官兵輔導委員會",
      "Region": "臺北市",
      "HotspotName": "國軍退除役官兵輔導委員會臺北市榮民服務處一樓大廳",
      "Address": "105臺北市松山區光復北路1號",
      "Latitude": "25.0484259",
      "Longitude": "121.558084"
    },
    {
      "Administration": "財政部",
      "Region": "臺北市",
      "HotspotName": "華南商業銀行中崙分行",
      "Address": "105臺北市松山區八德路三段145號",
      "Latitude": "25.048961",
      "Longitude": "121.554923"
    },
    {
      "Administration": "交通部",
      "Region": "臺北市",
      "HotspotName": "台北光復郵局",
      "Address": "105臺北市松山區八德路三段240號",
      "Latitude": "25.047932",
      "Longitude": "121.557611"
    },
    {
      "Administration": "內政部",
      "Region": "臺北市",
      "HotspotName": "內政部營建署1樓大廳",
      "Address": "105臺北市松山區八德路二段342號",
      "Latitude": "25.0475778",
      "Longitude": "121.544623"
    },
    {
      "Administration": "內政部",
      "Region": "臺北市",
      "HotspotName": "內政部營建署1樓會議室",
      "Address": "105臺北市松山區八德路二段342號",
      "Latitude": "25.0475778",
      "Longitude": "121.544623"
    },
    {
      "Administration": "內政部",
      "Region": "臺北市",
      "HotspotName": "內政部營建署5樓大禮堂",
      "Address": "105臺北市松山區八德路二段342號",
      "Latitude": "25.0475778",
      "Longitude": "121.544623"
    },
    {
      "Administration": "內政部",
      "Region": "臺北市",
      "HotspotName": "內政部營建署6樓會議室",
      "Address": "105臺北市松山區八德路二段342號",
      "Latitude": "25.0475778",
      "Longitude": "121.544623"
    },
    {
      "Administration": "內政部",
      "Region": "臺北市",
      "HotspotName": "內政部營建署B1第1會議室",
      "Address": "105臺北市松山區八德路二段342號",
      "Latitude": "25.0475778",
      "Longitude": "121.544623"
    },
    {
      "Administration": "內政部",
      "Region": "臺北市",
      "HotspotName": "內政部營建署B1第3會議室",
      "Address": "105臺北市松山區八德路二段342號",
      "Latitude": "25.0475778",
      "Longitude": "121.544623"
    },
    {
      "Administration": "內政部",
      "Region": "臺北市",
      "HotspotName": "內政部營建署記者室",
      "Address": "105臺北市松山區八德路二段342號",
      "Latitude": "25.0475778",
      "Longitude": "121.544623"
    },
    {
      "Administration": "內政部",
      "Region": "臺北市",
      "HotspotName": "內政部營建署城鄉發展分署2、3樓",
      "Address": "105臺北市松山區八德路二段342號北棟二樓",
      "Latitude": "25.0475778",
      "Longitude": "121.544623"
    },
    {
      "Administration": "內政部",
      "Region": "臺北市",
      "HotspotName": "內政部營建署城鄉發展分署4、5樓",
      "Address": "105臺北市松山區八德路二段342號北棟四樓",
      "Latitude": "25.0475778",
      "Longitude": "121.544623"
    },
    {
      "Administration": "交通部",
      "Region": "臺北市",
      "HotspotName": "公路總局台北市區監理所",
      "Address": "105臺北市松山區八德路四段21號3樓",
      "Latitude": "25.048135",
      "Longitude": "121.558077"
    },
    {
      "Administration": "金融監督管理委員會",
      "Region": "臺北市",
      "HotspotName": "上海商銀松山分行",
      "Address": "105臺北市松山區八德路四段319號",
      "Latitude": "25.049267",
      "Longitude": "121.566974"
    },
    {
      "Administration": "經濟部",
      "Region": "臺北市",
      "HotspotName": "台電公司松山服務所大廳",
      "Address": "105臺北市松山區八德路四段598號2樓",
      "Latitude": "25.05005",
      "Longitude": "121.572175"
    },
    {
      "Administration": "交通部",
      "Region": "臺北市",
      "HotspotName": "台北松山郵局",
      "Address": "105臺北市松山區八德路四段626號",
      "Latitude": "25.049895",
      "Longitude": "121.574124"
    },
    {
      "Administration": "財政部",
      "Region": "臺北市",
      "HotspotName": "華南商業銀行松山分行",
      "Address": "105臺北市松山區八德路四段654號",
      "Latitude": "25.049909",
      "Longitude": "121.57516"
    },
    {
      "Administration": "財政部",
      "Region": "臺北市",
      "HotspotName": "彰化商業銀行東興分行",
      "Address": "105臺北市松山區八德路四段88號1、2樓",
      "Latitude": "25.048321",
      "Longitude": "121.560438"
    },
    {
      "Administration": "財政部",
      "Region": "臺北市",
      "HotspotName": "第一商業銀行(松山分行)",
      "Address": "105臺北市松山區八德路４段760號",
      "Latitude": "25.0501013",
      "Longitude": "121.5793154"
    },
    {
      "Administration": "財政部",
      "Region": "臺北市",
      "HotspotName": "兆豐國際商銀松南分行",
      "Address": "105臺北市松山區南京東路5段234號",
      "Latitude": "25.051196",
      "Longitude": "121.565939"
    },
    {
      "Administration": "交通部",
      "Region": "臺北市",
      "HotspotName": "台北體育場郵局-1",
      "Address": "105臺北市松山區南京東路三段346號",
      "Latitude": "25.051551",
      "Longitude": "121.548071"
    },
    {
      "Administration": "交通部",
      "Region": "臺北市",
      "HotspotName": "台北體育場郵局-2",
      "Address": "105臺北市松山區南京東路三段346號",
      "Latitude": "25.051551",
      "Longitude": "121.548071"
    },
    {
      "Administration": "財政部",
      "Region": "臺北市",
      "HotspotName": "第一商業銀行中崙分行",
      "Address": "105臺北市松山區南京東路五段188號",
      "Latitude": "25.051231",
      "Longitude": "121.563385"
    },
    {
      "Administration": "財政部",
      "Region": "臺北市",
      "HotspotName": "彰化商業銀行西松分行",
      "Address": "105臺北市松山區南京東路五段213號1樓",
      "Latitude": "25.051494",
      "Longitude": "121.5638"
    },
    {
      "Administration": "財政部",
      "Region": "臺北市",
      "HotspotName": "華南商業銀行東興分行",
      "Address": "105臺北市松山區南京東路五段239號",
      "Latitude": "25.05559",
      "Longitude": "121.564579"
    },
    {
      "Administration": "交通部",
      "Region": "臺北市",
      "HotspotName": "台北西松郵局",
      "Address": "105臺北市松山區南京東路五段311號",
      "Latitude": "25.051569",
      "Longitude": "121.566697"
    },
    {
      "Administration": "財政部",
      "Region": "臺北市",
      "HotspotName": "彰化商業銀行東臺北分行",
      "Address": "105臺北市松山區南京東路四段126號",
      "Latitude": "25.051446",
      "Longitude": "121.555311"
    },
    {
      "Administration": "金融監督管理委員會",
      "Region": "臺北市",
      "HotspotName": "上海商銀南京東路分行",
      "Address": "105臺北市松山區南京東路四段163號",
      "Latitude": "25.051838",
      "Longitude": "121.555823"
    },
    {
      "Administration": "財政部",
      "Region": "臺北市",
      "HotspotName": "華南商業銀行東台北分行",
      "Address": "105臺北市松山區南京東路四段50號",
      "Latitude": "25.051333",
      "Longitude": "121.553485"
    },
    {
      "Administration": "財政部",
      "Region": "臺北市",
      "HotspotName": "兆豐國際商銀敦化分行",
      "Address": "105臺北市松山區南京東路四段一號2樓",
      "Latitude": "25.05211",
      "Longitude": "121.54943"
    },
    {
      "Administration": "財政部",
      "Region": "臺北市",
      "HotspotName": "第一商業銀行(長春分行)",
      "Address": "105臺北市松山區復興北路169號",
      "Latitude": "25.054063",
      "Longitude": "121.544447"
    },
    {
      "Administration": "金融監督管理委員會",
      "Region": "臺北市",
      "HotspotName": "上海商銀民生分行",
      "Address": "105臺北市松山區復興北路203號",
      "Latitude": "25.055847",
      "Longitude": "121.544349"
    },
    {
      "Administration": "財政部",
      "Region": "臺北市",
      "HotspotName": "華南商業銀行復興分行",
      "Address": "105臺北市松山區復興北路337號",
      "Latitude": "25.060916",
      "Longitude": "121.544538"
    },
    {
      "Administration": "財政部",
      "Region": "臺北市",
      "HotspotName": "第一商業銀行民權分行",
      "Address": "105臺北市松山區復興北路365號",
      "Latitude": "25.061043",
      "Longitude": "121.544595"
    },
    {
      "Administration": "財政部",
      "Region": "臺北市",
      "HotspotName": "彰化商業銀行復興分行",
      "Address": "105臺北市松山區復興北路367號",
      "Latitude": "25.060712",
      "Longitude": "121.544377"
    },
    {
      "Administration": "財政部",
      "Region": "臺北市",
      "HotspotName": "臺灣銀行敦化分行",
      "Address": "105臺北市松山區敦化北路205號1樓",
      "Latitude": "25.057485",
      "Longitude": "121.549494"
    },
    {
      "Administration": "交通部",
      "Region": "臺北市",
      "HotspotName": "運輸研究所10樓",
      "Address": "105臺北市松山區敦化北路240號",
      "Latitude": "25.060251",
      "Longitude": "121.549399"
    },
    {
      "Administration": "交通部",
      "Region": "臺北市",
      "HotspotName": "運輸研究所11樓",
      "Address": "105臺北市松山區敦化北路240號",
      "Latitude": "25.060251",
      "Longitude": "121.549399"
    },
    {
      "Administration": "交通部",
      "Region": "臺北市",
      "HotspotName": "運輸研究所6-7樓",
      "Address": "105臺北市松山區敦化北路240號",
      "Latitude": "25.060251",
      "Longitude": "121.549399"
    },
    {
      "Administration": "交通部",
      "Region": "臺北市",
      "HotspotName": "運輸研究所8-9樓",
      "Address": "105臺北市松山區敦化北路240號",
      "Latitude": "25.060251",
      "Longitude": "121.549399"
    },
    {
      "Administration": "交通部",
      "Region": "臺北市",
      "HotspotName": "觀光局旅遊服務中心服務台",
      "Address": "105臺北市松山區敦化北路240號1樓",
      "Latitude": "25.060121",
      "Longitude": "121.549497"
    },
    {
      "Administration": "交通部",
      "Region": "臺北市",
      "HotspotName": "觀光局旅遊服務中心圖書館",
      "Address": "105臺北市松山區敦化北路240號2樓",
      "Latitude": "25.060121",
      "Longitude": "121.549497"
    },
    {
      "Administration": "交通部",
      "Region": "臺北市",
      "HotspotName": "運輸研究所5樓會議室、圖書室",
      "Address": "105臺北市松山區敦化北路240號5樓",
      "Latitude": "25.060507",
      "Longitude": "121.549344"
    },
    {
      "Administration": "交通部",
      "Region": "臺北市",
      "HotspotName": "運輸研究所B1國際會議廳",
      "Address": "105臺北市松山區敦化北路240號B1",
      "Latitude": "25.060121",
      "Longitude": "121.549497"
    },
    {
      "Administration": "交通部",
      "Region": "臺北市",
      "HotspotName": "松山機場郵局",
      "Address": "105臺北市松山區敦化北路340-9號",
      "Latitude": "25.0636663",
      "Longitude": "121.5515132"
    },
    {
      "Administration": "行政院農業委員會",
      "Region": "臺北市",
      "HotspotName": "台北松山機場檢疫站(入境)",
      "Address": "105臺北市松山區敦化北路340之9號",
      "Latitude": "25.063666",
      "Longitude": "121.551513"
    },
    {
      "Administration": "行政院農業委員會",
      "Region": "臺北市",
      "HotspotName": "台北松山機場檢疫站(出境)",
      "Address": "105臺北市松山區敦化北路340之9號",
      "Latitude": "25.063666",
      "Longitude": "121.551513"
    },
    {
      "Administration": "交通部",
      "Region": "臺北市",
      "HotspotName": "臺北國際航空站入境長廊",
      "Address": "105臺北市松山區敦化北路340之9號",
      "Latitude": "25.063666",
      "Longitude": "121.551513"
    },
    {
      "Administration": "交通部",
      "Region": "臺北市",
      "HotspotName": "臺北國際航空站國內線內候機室",
      "Address": "105臺北市松山區敦化北路340之9號",
      "Latitude": "25.063666",
      "Longitude": "121.551513"
    },
    {
      "Administration": "交通部",
      "Region": "臺北市",
      "HotspotName": "臺北國際航空站國內線到站大廳(行李提領區)",
      "Address": "105臺北市松山區敦化北路340之9號",
      "Latitude": "25.063666",
      "Longitude": "121.551513"
    },
    {
      "Administration": "交通部",
      "Region": "臺北市",
      "HotspotName": "臺北國際航空站國內線報到大廳",
      "Address": "105臺北市松山區敦化北路340之9號",
      "Latitude": "25.063666",
      "Longitude": "121.551513"
    },
    {
      "Administration": "交通部",
      "Region": "臺北市",
      "HotspotName": "臺北國際航空站國內線迎客大廳",
      "Address": "105臺北市松山區敦化北路340之9號",
      "Latitude": "25.063666",
      "Longitude": "121.551513"
    },
    {
      "Administration": "交通部",
      "Region": "臺北市",
      "HotspotName": "臺北國際航空站國際線內候機室",
      "Address": "105臺北市松山區敦化北路340之9號",
      "Latitude": "25.063666",
      "Longitude": "121.551513"
    },
    {
      "Administration": "交通部",
      "Region": "臺北市",
      "HotspotName": "臺北國際航空站國際線內候機室(一航廈2樓)",
      "Address": "105臺北市松山區敦化北路340之9號",
      "Latitude": "25.063666",
      "Longitude": "121.551513"
    },
    {
      "Administration": "交通部",
      "Region": "臺北市",
      "HotspotName": "臺北國際航空站國際線出境外候機室",
      "Address": "105臺北市松山區敦化北路340之9號",
      "Latitude": "25.063666",
      "Longitude": "121.551513"
    },
    {
      "Administration": "交通部",
      "Region": "臺北市",
      "HotspotName": "臺北國際航空站國際線報到大廳",
      "Address": "105臺北市松山區敦化北路340之9號",
      "Latitude": "25.063666",
      "Longitude": "121.551513"
    },
    {
      "Administration": "交通部",
      "Region": "臺北市",
      "HotspotName": "臺北國際航空站國際線外候機室",
      "Address": "105臺北市松山區敦化北路340之9號",
      "Latitude": "25.063666",
      "Longitude": "121.551513"
    },
    {
      "Administration": "交通部",
      "Region": "臺北市",
      "HotspotName": "臺北國際航空站國際線海關大廳(行李提領區)",
      "Address": "105臺北市松山區敦化北路340之9號",
      "Latitude": "25.063666",
      "Longitude": "121.551513"
    },
    {
      "Administration": "交通部",
      "Region": "臺北市",
      "HotspotName": "臺北國際航空站國際線迎客大廳",
      "Address": "105臺北市松山區敦化北路340之9號",
      "Latitude": "25.063666",
      "Longitude": "121.551513"
    },
    {
      "Administration": "交通部",
      "Region": "臺北市",
      "HotspotName": "臺北國際航空站觀景台",
      "Address": "105臺北市松山區敦化北路340之9號",
      "Latitude": "25.063666",
      "Longitude": "121.551513"
    },
    {
      "Administration": "交通部",
      "Region": "臺北市",
      "HotspotName": "民用航空局",
      "Address": "105臺北市松山區敦化北路340號",
      "Latitude": "25.061824",
      "Longitude": "121.55199"
    },
    {
      "Administration": "財政部",
      "Region": "臺北市",
      "HotspotName": "兆豐國際商銀松山機場分行",
      "Address": "105臺北市松山區敦化北路340號航站大廈",
      "Latitude": "25.063996",
      "Longitude": "121.551865"
    },
    {
      "Administration": "財政部",
      "Region": "臺北市",
      "HotspotName": "第一商業銀行八德分行",
      "Address": "105臺北市松山區敦化南路1段3號",
      "Latitude": "25.047366",
      "Longitude": "121.549288"
    },
    {
      "Administration": "財政部",
      "Region": "臺北市",
      "HotspotName": "臺灣土地銀行松山分行",
      "Address": "105臺北市松山區敦化南路一段1號",
      "Latitude": "25.047677",
      "Longitude": "121.549351"
    },
    {
      "Administration": "財政部",
      "Region": "臺北市",
      "HotspotName": "臺灣土地銀行中崙分行",
      "Address": "105臺北市松山區東興路26號",
      "Latitude": "25.048607",
      "Longitude": "121.565198"
    },
    {
      "Administration": "交通部",
      "Region": "臺北市",
      "HotspotName": "臺鐵局松山站售票大廳",
      "Address": "105臺北市松山區松山路11號",
      "Latitude": "25.0495143",
      "Longitude": "121.5789138"
    },
    {
      "Administration": "交通部",
      "Region": "臺北市",
      "HotspotName": "臺鐵局松山站第2月台10車位置",
      "Address": "105臺北市松山區松山路11號",
      "Latitude": "25.0495143",
      "Longitude": "121.5789138"
    },
    {
      "Administration": "交通部",
      "Region": "臺北市",
      "HotspotName": "臺鐵局松山站第2月台3車位置",
      "Address": "105臺北市松山區松山路11號",
      "Latitude": "25.0495143",
      "Longitude": "121.5789138"
    },
    {
      "Administration": "交通部",
      "Region": "臺北市",
      "HotspotName": "臺鐵局松山站西剪票口候車處",
      "Address": "105臺北市松山區松山路11號",
      "Latitude": "25.0495143",
      "Longitude": "121.5789138"
    },
    {
      "Administration": "交通部",
      "Region": "臺北市",
      "HotspotName": "台北榮星郵局",
      "Address": "105臺北市松山區民權東路三段124之1、2號",
      "Latitude": "25.061876",
      "Longitude": "121.545755"
    },
    {
      "Administration": "金融監督管理委員會",
      "Region": "臺北市",
      "HotspotName": "上海商銀敦北分行",
      "Address": "105臺北市松山區民權東路三段142號",
      "Latitude": "25.061739",
      "Longitude": "121.546874"
    },
    {
      "Administration": "財政部",
      "Region": "臺北市",
      "HotspotName": "兆豐國際商銀民生分行",
      "Address": "105臺北市松山區民生東路3段128號",
      "Latitude": "25.057516",
      "Longitude": "121.546042"
    },
    {
      "Administration": "財政部",
      "Region": "臺北市",
      "HotspotName": "第一商業銀行民生分行",
      "Address": "105臺北市松山區民生東路三段131號",
      "Latitude": "25.057942",
      "Longitude": "121.547821"
    },
    {
      "Administration": "財政部",
      "Region": "臺北市",
      "HotspotName": "臺灣土地銀行復興分行",
      "Address": "105臺北市松山區民生東路三段132號",
      "Latitude": "25.057504",
      "Longitude": "121.546522"
    },
    {
      "Administration": "交通部",
      "Region": "臺北市",
      "HotspotName": "台北延壽郵局",
      "Address": "105臺北市松山區民生東路五段12號",
      "Latitude": "25.058151",
      "Longitude": "121.555969"
    },
    {
      "Administration": "金融監督管理委員會",
      "Region": "臺北市",
      "HotspotName": "上海商銀三民分行",
      "Address": "105臺北市松山區民生東路五段141號",
      "Latitude": "25.059072",
      "Longitude": "121.56182"
    },
    {
      "Administration": "財政部",
      "Region": "臺北市",
      "HotspotName": "華南商業銀行瑞祥分行",
      "Address": "105臺北市松山區民生東路五段145號",
      "Latitude": "25.059458",
      "Longitude": "121.562026"
    },
    {
      "Administration": "交通部",
      "Region": "臺北市",
      "HotspotName": "台北民生郵局",
      "Address": "105臺北市松山區民生東路五段191號",
      "Latitude": "25.059196",
      "Longitude": "121.565474"
    },
    {
      "Administration": "財政部",
      "Region": "臺北市",
      "HotspotName": "兆豐國際商銀城東分行",
      "Address": "105臺北市松山區民生東路四段52號",
      "Latitude": "25.057776",
      "Longitude": "121.551141"
    },
    {
      "Administration": "財政部",
      "Region": "臺北市",
      "HotspotName": "彰化商業銀行民生分行",
      "Address": "105臺北市松山區民生東路四段54之1號",
      "Latitude": "25.057723",
      "Longitude": "121.551098"
    },
    {
      "Administration": "交通部",
      "Region": "臺北市",
      "HotspotName": "台北台塑郵局",
      "Address": "105臺北市松山區民生東路四段54號",
      "Latitude": "25.05765",
      "Longitude": "121.551082"
    },
    {
      "Administration": "財政部",
      "Region": "臺北市",
      "HotspotName": "華南商業銀行民生分行",
      "Address": "105臺北市松山區民生東路四段54號",
      "Latitude": "25.057779",
      "Longitude": "121.551012"
    },
    {
      "Administration": "財政部",
      "Region": "臺北市",
      "HotspotName": "華南商業銀行台北南門分行",
      "Address": "106臺北市中山區羅斯福路二段11號",
      "Latitude": "25.028664",
      "Longitude": "121.521578"
    },
    {
      "Administration": "財政部",
      "Region": "臺北市",
      "HotspotName": "彰化商業銀行建國分行",
      "Address": "106臺北市大安區仁愛路三段136號",
      "Latitude": "25.037629",
      "Longitude": "121.541655"
    },
    {
      "Administration": "財政部",
      "Region": "臺北市",
      "HotspotName": "臺灣土地銀行仁愛分行",
      "Address": "106臺北市大安區仁愛路三段29號",
      "Latitude": "25.0385782",
      "Longitude": "121.5346993"
    },
    {
      "Administration": "交通部",
      "Region": "臺北市",
      "HotspotName": "台北仁愛路郵局",
      "Address": "106臺北市大安區仁愛路三段47號",
      "Latitude": "25.0385284",
      "Longitude": "121.5356224"
    },
    {
      "Administration": "財政部",
      "Region": "臺北市",
      "HotspotName": "華南商業銀行仁愛路分行",
      "Address": "106臺北市大安區仁愛路四段25號",
      "Latitude": "25.115445",
      "Longitude": "121.552734"
    },
    {
      "Administration": "衛生福利部",
      "Region": "臺北市",
      "HotspotName": "國泰醫院台北總院第二院區RF-樓頂(試辦單位-暫停服務至2016/12/31)",
      "Address": "106臺北市大安區仁愛路四段266巷6號(第二院區)",
      "Latitude": "25.037693",
      "Longitude": "121.552812"
    },
    {
      "Administration": "衛生福利部",
      "Region": "臺北市",
      "HotspotName": "國泰醫院台北總院1F-22與29門診中間(試辦單位-暫停服務至2016/12/31)",
      "Address": "106臺北市大安區仁愛路四段280號1F(台北總院)",
      "Latitude": "25.036783",
      "Longitude": "121.553757"
    },
    {
      "Administration": "衛生福利部",
      "Region": "臺北市",
      "HotspotName": "國泰醫院台北總院1F-家醫科門診門口(試辦單位-暫停服務至2016/12/31)",
      "Address": "106臺北市大安區仁愛路四段280號1F(台北總院)",
      "Latitude": "25.036783",
      "Longitude": "121.553757"
    },
    {
      "Administration": "衛生福利部",
      "Region": "臺北市",
      "HotspotName": "國泰醫院台北總院1F-急診室中間(試辦單位-暫停服務至2016/12/31)",
      "Address": "106臺北市大安區仁愛路四段280號1F(台北總院)",
      "Latitude": "25.036783",
      "Longitude": "121.553757"
    },
    {
      "Administration": "衛生福利部",
      "Region": "臺北市",
      "HotspotName": "國泰醫院台北總院1F-糖尿病衛教室門口(試辦單位-暫停服務至2016/12/31)",
      "Address": "106臺北市大安區仁愛路四段280號1F(台北總院)",
      "Latitude": "25.036783",
      "Longitude": "121.553757"
    },
    {
      "Administration": "衛生福利部",
      "Region": "臺北市",
      "HotspotName": "國泰醫院台北總院1F-門診調劑組上方(試辦單位-暫停服務至2016/12/31)",
      "Address": "106臺北市大安區仁愛路四段280號1F(台北總院)",
      "Latitude": "25.036783",
      "Longitude": "121.553757"
    },
    {
      "Administration": "衛生福利部",
      "Region": "臺北市",
      "HotspotName": "國泰醫院台北總院第一院區1F-71門診口(試辦單位-暫停服務至2016/12/31)",
      "Address": "106臺北市大安區仁愛路四段280號1F(第一院區)",
      "Latitude": "25.036783",
      "Longitude": "121.553757"
    },
    {
      "Administration": "衛生福利部",
      "Region": "臺北市",
      "HotspotName": "國泰醫院台北總院第一院區1F-口腔篩檢門口(試辦單位-暫停服務至2016/12/31)",
      "Address": "106臺北市大安區仁愛路四段280號1F(第一院區)",
      "Latitude": "25.036783",
      "Longitude": "121.553757"
    },
    {
      "Administration": "衛生福利部",
      "Region": "臺北市",
      "HotspotName": "國泰醫院台北總院第一院區1F-眼鏡部(試辦單位-暫停服務至2016/12/31)",
      "Address": "106臺北市大安區仁愛路四段280號1F(第一院區)",
      "Latitude": "25.036783",
      "Longitude": "121.553757"
    },
    {
      "Administration": "衛生福利部",
      "Region": "臺北市",
      "HotspotName": "國泰醫院台北總院第一院區RF-樓頂(試辦單位-暫停服務至2016/12/31)",
      "Address": "106臺北市大安區仁愛路四段280號1F(第一院區)",
      "Latitude": "25.036783",
      "Longitude": "121.553757"
    },
    {
      "Administration": "衛生福利部",
      "Region": "臺北市",
      "HotspotName": "國泰醫院台北總院2F-52門診門口(試辦單位-暫停服務至2016/12/31)",
      "Address": "106臺北市大安區仁愛路四段280號2F(台北總院)",
      "Latitude": "25.036783",
      "Longitude": "121.553757"
    },
    {
      "Administration": "衛生福利部",
      "Region": "臺北市",
      "HotspotName": "國泰醫院台北總院2F-婦產科門診中間(試辦單位-暫停服務至2016/12/31)",
      "Address": "106臺北市大安區仁愛路四段280號2F(台北總院)",
      "Latitude": "25.036783",
      "Longitude": "121.553757"
    },
    {
      "Administration": "衛生福利部",
      "Region": "臺北市",
      "HotspotName": "國泰醫院台北總院2F-手術室直外處置室門口(試辦單位-暫停服務至2016/12/31)",
      "Address": "106臺北市大安區仁愛路四段280號2F(台北總院)",
      "Latitude": "25.036783",
      "Longitude": "121.553757"
    },
    {
      "Administration": "衛生福利部",
      "Region": "臺北市",
      "HotspotName": "國泰醫院台北總院2F-門診手術室中間(試辦單位-暫停服務至2016/12/31)",
      "Address": "106臺北市大安區仁愛路四段280號2F(台北總院)",
      "Latitude": "25.036783",
      "Longitude": "121.553757"
    },
    {
      "Administration": "衛生福利部",
      "Region": "臺北市",
      "HotspotName": "國泰醫院台北總院3F-內視鏡門診門口(試辦單位-暫停服務至2016/12/31)",
      "Address": "106臺北市大安區仁愛路四段280號3F(台北總院)",
      "Latitude": "25.036783",
      "Longitude": "121.553757"
    },
    {
      "Administration": "財政部",
      "Region": "臺北市",
      "HotspotName": "彰化商業銀行仁和分行",
      "Address": "106臺北市大安區仁愛路四段31號",
      "Latitude": "25.03824",
      "Longitude": "121.54562"
    },
    {
      "Administration": "財政部",
      "Region": "臺北市",
      "HotspotName": "第一商業銀行仁和分行",
      "Address": "106臺北市大安區仁愛路四段376號",
      "Latitude": "25.037397",
      "Longitude": "121.555753"
    },
    {
      "Administration": "財政部",
      "Region": "臺北市",
      "HotspotName": "第一商業銀行(仁愛分行)",
      "Address": "106臺北市大安區仁愛路４段50號",
      "Latitude": "25.0376027",
      "Longitude": "121.5473591"
    },
    {
      "Administration": "財政部",
      "Region": "臺北市",
      "HotspotName": "關務署臺北關臺北郵局支局",
      "Address": "106臺北市大安區信義路3段89號2樓",
      "Latitude": "25.019655",
      "Longitude": "121.546474"
    },
    {
      "Administration": "衛生福利部",
      "Region": "臺北市",
      "HotspotName": "中央健康保險署-臺北(信義路)聯合門診中心地下1樓",
      "Address": "106臺北市大安區信義路三段140號B1",
      "Latitude": "25.03313",
      "Longitude": "121.540161"
    },
    {
      "Administration": "財政部",
      "Region": "臺北市",
      "HotspotName": "兆豐國際商業銀行資訊處信義大樓8樓",
      "Address": "106臺北市大安區信義路三段182號",
      "Latitude": "25.033209",
      "Longitude": "121.542445"
    },
    {
      "Administration": "財政部",
      "Region": "臺北市",
      "HotspotName": "兆豐國際商銀大安分行",
      "Address": "106臺北市大安區信義路三段182號",
      "Latitude": "25.033209",
      "Longitude": "121.542445"
    },
    {
      "Administration": "經濟部",
      "Region": "臺北市",
      "HotspotName": "經濟部工業局金億大樓6樓",
      "Address": "106臺北市大安區信義路三段41-2號",
      "Latitude": "25.034283",
      "Longitude": "121.535161"
    },
    {
      "Administration": "經濟部",
      "Region": "臺北市",
      "HotspotName": "經濟部工業局1樓",
      "Address": "106臺北市大安區信義路三段41-3號",
      "Latitude": "25.033789",
      "Longitude": "121.535347"
    },
    {
      "Administration": "經濟部",
      "Region": "臺北市",
      "HotspotName": "經濟部工業局2樓-會議室前段",
      "Address": "106臺北市大安區信義路三段41-3號",
      "Latitude": "25.034205",
      "Longitude": "121.535311"
    },
    {
      "Administration": "經濟部",
      "Region": "臺北市",
      "HotspotName": "經濟部工業局2樓-會議室後段",
      "Address": "106臺北市大安區信義路三段41-3號",
      "Latitude": "25.034205",
      "Longitude": "121.535311"
    },
    {
      "Administration": "經濟部",
      "Region": "臺北市",
      "HotspotName": "經濟部工業局3樓",
      "Address": "106臺北市大安區信義路三段41-3號",
      "Latitude": "25.034205",
      "Longitude": "121.535311"
    },
    {
      "Administration": "經濟部",
      "Region": "臺北市",
      "HotspotName": "經濟部工業局4樓",
      "Address": "106臺北市大安區信義路三段41-3號",
      "Latitude": "25.034205",
      "Longitude": "121.535311"
    },
    {
      "Administration": "經濟部",
      "Region": "臺北市",
      "HotspotName": "經濟部工業局5樓",
      "Address": "106臺北市大安區信義路三段41-3號",
      "Latitude": "25.034205",
      "Longitude": "121.535311"
    },
    {
      "Administration": "經濟部",
      "Region": "臺北市",
      "HotspotName": "經濟部工業局6樓",
      "Address": "106臺北市大安區信義路三段41-3號",
      "Latitude": "25.034205",
      "Longitude": "121.535311"
    },
    {
      "Administration": "經濟部",
      "Region": "臺北市",
      "HotspotName": "經濟部工業局7樓",
      "Address": "106臺北市大安區信義路三段41-3號",
      "Latitude": "25.034205",
      "Longitude": "121.535311"
    },
    {
      "Administration": "經濟部",
      "Region": "臺北市",
      "HotspotName": "經濟部工業局8樓",
      "Address": "106臺北市大安區信義路三段41-3號",
      "Latitude": "25.034205",
      "Longitude": "121.535311"
    },
    {
      "Administration": "經濟部",
      "Region": "臺北市",
      "HotspotName": "水利署台北辦公區",
      "Address": "106臺北市大安區信義路三段41-3號9樓",
      "Latitude": "25.033771",
      "Longitude": "121.535213"
    },
    {
      "Administration": "交通部",
      "Region": "臺北市",
      "HotspotName": "台北大安郵局",
      "Address": "106臺北市大安區信義路三段89號",
      "Latitude": "25.033691",
      "Longitude": "121.538257"
    },
    {
      "Administration": "財政部",
      "Region": "臺北市",
      "HotspotName": "彰化商業銀行信義分行",
      "Address": "106臺北市大安區信義路四段155號",
      "Latitude": "25.033604",
      "Longitude": "121.55009"
    },
    {
      "Administration": "金融監督管理委員會",
      "Region": "臺北市",
      "HotspotName": "上海商銀松南分行",
      "Address": "106臺北市大安區信義路四段275號",
      "Latitude": "25.033336",
      "Longitude": "121.554434"
    },
    {
      "Administration": "交通部",
      "Region": "臺北市",
      "HotspotName": "台北三張犁郵局",
      "Address": "106臺北市大安區信義路四段337號",
      "Latitude": "25.033232",
      "Longitude": "121.556387"
    },
    {
      "Administration": "財政部",
      "Region": "臺北市",
      "HotspotName": "第一商業銀行大安分行",
      "Address": "106臺北市大安區信義路四段382號",
      "Latitude": "25.03288",
      "Longitude": "121.555943"
    },
    {
      "Administration": "財政部",
      "Region": "臺北市",
      "HotspotName": "華南商業銀行信維分行",
      "Address": "106臺北市大安區信義路四段6號2樓",
      "Latitude": "25.038133",
      "Longitude": "121.544237"
    },